name,category,area,address,lat,lon,phone,email,website,facebook,instagram,tiktok,twitter,opening_hours,happy_hour_status,happy_hour_details,happy_hour_timings,confidence,sources,source_urls,evidence_text
MK Restaurants,restaurant,Krabi Town,,8.1085692,98.9275099,1642,,https://www.mkrestaurant.com/,https://www.facebook.com/mkrestaurants,https://www.instagram.com/p/ClNQcd-LDKC,,,"PH,Mo-Su 11:00-21:00",mentioned,"เครื่องดื่ม, โปรโมชั่น",,1.0,overpass_osm | website | website_inner,https://www.mkrestaurant.com/ | https://www.mkrestaurant.com/th/mk-menu | https://www.mkrestaurant.com/th/promotion | https://www.mkrestaurant.com/th/promotion/detail/mk-happy-cake?mode=preview | https://www.mkrestaurant.com/th/promotion/detail/mk-คุ้มเกินคุ้ม-299-จัดมหกรรมลูกชิ้นมาเป็นกองทัพ-อร่อยได้ไม่อั้น | https://www.mkrestaurant.com/th/promotion/detail/mk-คุ้มเกินคุ้ม-299-สำหรับสมาชิก-mk | https://www.mkrestaurant.com/th/promotion/detail/ข้าวไข่ข้นกะเพรา | https://www.mkrestaurant.com/th/promotion/detail/คุ้มตั้งแต่สมัคร-เป็นสมาชิก-mk-red-e-member-วันนี้-รับฟรี-ใช้ส่วนลดได้ทันที-สมัครเพียง-129 | https://www.mkrestaurant.com/th/promotion/detail/น้ำจิ้ม-mk-สูตรเผ็ดร้อนจัดจ้าน | https://www.mkrestaurant.com/th/promotion/detail/สมาชิก-mk-red-ฉลองวันเกิดสุดพิเศษกับชุด-birthday-special-เพียง-599-บาท-ปกติ-859-บาท-2 | https://www.mkrestaurant.com/th/promotion/detail/สิทธิพิเศษสำหรับลูกค้าผู้ถือบัตรเครดิต-gsb-1 | https://www.openstreetmap.org/node/3374348433 | https://www.openstreetmap.org/node/3374348434,MK Restaurants restaurant || Mkrestaurant.com | MK คุ้มเกินคุ้ม 299 สำหรับสมาชิก MK | ช่วงเวลาแห่งความสุข โปรโมชั่น เอ็มเคเมนู สาขาเอ็มเค เกี่ยวกับเอ็มเค ตำนานเอ็มเคสุกี้ รางวัลแห่งความสำเร็จ กิจกรรมเพื่อสังคม ติดต่อเรา ติดต่อสอบถาม แนะนำติชมบริการ ร่วมงานกับเรา นักลงทุนสัมพันธ์ นโยบายความเป็นส่วนตัว นโยบายการใช้เว็บไซต์ เอ็มเคเดลิเวอรี่ เอ็มเค ญี่ปุ่น TH EN CN TH EN CN Delivery Service 1642 MK Member Card MK คุ้มเกินคุ้ม 299 สำหรับสมาชิก MK ระยะเวลาโปรโมชั่น 9 มีนาคม 2569 - 30 มิถุนายน 2569 สำหรับสมาชิก MK ทุกประเภทบัตร ต่ || Mkrestaurant.com | MK คุ้มเกินคุ้ม 299.- จัดมหกรรมลูกชิ้นมาเป็นกองทัพ! อร่อยได้ไม่อั้น | ช่วงเวลาแห่งความสุข โปรโมชั่น เอ็มเคเมนู สาขาเอ็มเค เกี่ยวกับเอ็มเค ตำนานเอ็มเคสุกี้ รางวัลแห่งความสำเร็จ กิจกรรมเพื่อสังคม ติดต่อเรา ติดต่อสอบถาม แนะนำติชมบริการ ร่วมงานกับเรา นักลงทุนสัมพันธ์ นโยบายความเป็นส่วนตัว นโยบายการใช้เว็บไซต์ เอ็มเคเดลิเวอรี่ เอ็มเค ญี่ปุ่น TH EN CN TH EN CN Delivery Service 1642 MK Member Card MK คุ้มเกินคุ้ม 299.- จัดมหกรรมลูกชิ้นมาเป็นกองทัพ! อร่อยได้ไม่อั้น ระยะเวลาโปรโมชั่น 3 || Mkrestaurant.com | MK อาหารดี สดใหม่ สำหรับทุกคน | ช่วงเวลาแห่งความสุข โปรโมชั่น เอ็มเคเมนู สาขาเอ็มเค เกี่ยวกับเอ็มเค ตำนานเอ็มเคสุกี้ รางวัลแห่งความสำเร็จ กิจกรรมเพื่อสังคม ติดต่อเรา ติดต่อสอบถาม แนะนำติชมบริการ ร่วมงานกับเรา นักลงทุนสัมพันธ์ นโยบายความเป็นส่วนตัว นโยบายการใช้เว็บไซต์ เอ็มเคเดลิเวอรี่ เอ็มเค ญี่ปุ่น TH EN CN TH EN CN Delivery Service 1642 MK Member Card PROMOTIONS MK MENU MK MEMBERSHIP MK SOCIAL สาขาเอ็มเค โปรโมชัน MK คุ้มจัดได้ อร่อยจุใจ โปรแนะนำ โปรโมชั่นทั้งหมด สุกี้ อาหารจ || Mkrestaurant.com | MK เมนู อร่อย หลากหลาย | ช่วงเวลาแห่งความสุข โปรโมชั่น เอ็มเคเมนู สาขาเอ็มเค เกี่ยวกับเอ็มเค ตำนานเอ็มเคสุกี้ รางวัลแห่งความสำเร็จ กิจกรรมเพื่อสังคม ติดต่อเรา ติดต่อสอบถาม แนะนำติชมบริการ ร่วมงานกับเรา นักลงทุนสัมพันธ์ นโยบายความเป็นส่วนตัว นโยบายการใช้เว็บไซต์ เอ็มเคเดลิเวอรี่ เอ็มเค ญี่ปุ่น TH EN CN TH EN CN Delivery Service 1642 MK Member Card สุกี้นัวไข่เข้มข้นหมู (เล็ก) สุกี้นัวไข่เข้มข้นหมู (เล็ก) ฿499 790.23 CALORIES *ราคาบนเว็บไซต์อาจมีการปรับเปลี่ยนโดยไม่ต้องแจ้งล่วงห || Mkrestaurant.com | คุ้มตั้งแต่สมัคร! เป็นสมาชิก MK Red E-Member วันนี้ รับฟรี + ใช้ส่วนลดได้ทันที สมัครเพียง 129.- | ช่วงเวลาแห่งความสุข โปรโมชั่น เอ็มเคเมนู สาขาเอ็มเค เกี่ยวกับเอ็มเค ตำนานเอ็มเคสุกี้ รางวัลแห่งความสำเร็จ กิจกรรมเพื่อสังคม ติดต่อเรา ติดต่อสอบถาม แนะนำติชมบริการ ร่วมงานกับเรา นักลงทุนสัมพันธ์ นโยบายความเป็นส่วนตัว นโยบายการใช้เว็บไซต์ เอ็มเคเดลิเวอรี่ เอ็มเค ญี่ปุ่น TH EN CN TH EN CN Delivery Service 1642 MK Member Card คุ้มตั้งแต่สมัคร! เป็นสมาชิก MK Red E-Member วันนี้ รับฟรี || Mkrestaurant.com | สมาชิก MK Red ฉลองวันเกิดสุดพิเศษกับชุด Birthday Special เพียง 599 บาท (ปกติ 859 บาท) | ช่วงเวลาแห่งความสุข โปรโมชั่น เอ็มเคเมนู สาขาเอ็มเค เกี่ยวกับเอ็มเค ตำนานเอ็มเคสุกี้ รางวัลแห่งความสำเร็จ กิจกรรมเพื่อสังคม ติดต่อเรา ติดต่อสอบถาม แนะนำติชมบริการ ร่วมงานกับเรา นักลงทุนสัมพันธ์ นโยบายความเป็นส่วนตัว นโยบายการใช้เว็บไซต์ เอ็มเคเดลิเวอรี่ เอ็มเค ญี่ปุ่น TH EN CN TH EN CN Delivery Service 1642 MK Member Card สมาชิก MK Red ฉลองวันเกิดสุดพิเศษกับชุด Birthday Special เพียง 599 บา || Mkrestaurant.com | สิทธิพิเศษสำหรับลูกค้าผู้ถือบัตรเครดิต GSB | ช่วงเวลาแห่งความสุข โปรโมชั่น เอ็มเคเมนู สาขาเอ็มเค เกี่ยวกับเอ็มเค ตำนานเอ็มเคสุกี้ รางวัลแห่งความสำเร็จ กิจกรรมเพื่อสังคม ติดต่อเรา ติดต่อสอบถาม แนะนำติชมบริการ ร่วมงานกับเรา นักลงทุนสัมพันธ์ นโยบายความเป็นส่วนตัว นโยบายการใช้เว็บไซต์ เอ็มเคเดลิเวอรี่ เอ็มเค ญี่ปุ่น TH EN CN TH EN CN Delivery Service 1642 MK Member Card สิทธิพิเศษสำหรับลูกค้าผู้ถือบัตรเครดิต GSB ระยะเวลาโปรโมชั่น 1 มกราคม 2569 - 31 ธันวาคม 2569 สิทธิพิเศษสำหรับลูก
Apache Bar,bar,Koh Phi Phi,,7.7416225,98.7734705,,,,,,,,,candidate,,,0.43,overpass_osm,https://www.openstreetmap.org/node/1225189694 | https://www.openstreetmap.org/node/574386953,Apache Bar bar || Apache Bar pub
Api Restaurant,bar,Koh Phi Phi,,7.7616905,98.7720628,,,,,,,,,candidate,,,0.43,overpass_osm,https://www.openstreetmap.org/node/6286134336 | https://www.openstreetmap.org/way/329706242,Api Bar bar || Api Restaurant restaurant
Bamboo Bar,bar,Railay,,8.0123802,98.8430327,,,,,,,,,candidate,,,0.43,overpass_osm,https://www.openstreetmap.org/node/2624836739 | https://www.openstreetmap.org/node/660225546,Bamboo Bar bar || Bamboo restaurant
Buffalo Head Bar,bar,Koh Phi Phi,,7.7617409,98.7706217,,,,,,,,,candidate,,,0.43,overpass_osm,https://www.openstreetmap.org/node/12526618846 | https://www.openstreetmap.org/node/5626632121,Buffalo Head Bar bar || Buffalo Head restaurant
Country Restaurant,bar,Koh Lanta,,7.6224508,99.0329981,,,,,,,,,candidate,,,0.43,overpass_osm,https://www.openstreetmap.org/node/13282883202 | https://www.openstreetmap.org/way/1369112645,Country Restaurant restaurant || Country bar
Fin's Stoned Bar,bar,Koh Lanta,,7.5702064,99.0336311,,,,,,,,24/7,candidate,,,0.43,overpass_osm,https://www.openstreetmap.org/node/4171888690 | https://www.openstreetmap.org/node/7130586485,Fin's Stoned Bar bar || Fin's stoned bar bar
Freedom Bar,bar,Railay,,8.0193218,98.8349381,,,,,,,,Mo-Su 07:30-14:00,candidate,,,0.43,overpass_osm,https://www.openstreetmap.org/node/10968740708 | https://www.openstreetmap.org/node/4620581576,Freedom Bar bar
Kph Pu Valley Bar,bar,Koh Jum,,7.8369077,98.94316,,,,,,,,,candidate,,,0.43,overpass_osm,https://www.openstreetmap.org/node/7150512179 | https://www.openstreetmap.org/node/7150512180,Koh Pu Valley restaurant || Kph Pu Valley Bar bar
Lovely restaurant,bar,Railay,,8.0321006,98.8252551,+66 87 876 4087,,,,,,,19:00-02:00,candidate,,,0.43,overpass_osm,https://www.openstreetmap.org/node/4770351121 | https://www.openstreetmap.org/node/5422056240,Lovely bar bar || Lovely restaurant restaurant
Monkey Bar,bar,Koh Lanta,,7.5695383,99.0339347,,,,,,,,,candidate,,,0.43,overpass_osm,https://www.openstreetmap.org/node/2624917229 | https://www.openstreetmap.org/way/1075829667,Monkey Bar bar || Monkey Bar pub
Pool Restaurant,bar,Koh Phi Phi,,7.7590659,98.7747268,,,,,,,,,candidate,,,0.43,overpass_osm,https://www.openstreetmap.org/node/5347961662 | https://www.openstreetmap.org/way/671581361,Pool Bar bar || Pool Restaurant restaurant
Rimlay Restaurant,bar,Koh Phi Phi,,7.7362481,98.7756461,,,,,,,,,candidate,,,0.43,overpass_osm,https://www.openstreetmap.org/node/4620581552 | https://www.openstreetmap.org/node/4620581587,Rimlay Bar bar || Rimlay Restaurant restaurant
Sunset Bar,bar,Railay,,8.0102421,98.8382214,,,,,,,,,candidate,,,0.43,overpass_osm,https://www.openstreetmap.org/node/3682431338 | https://www.openstreetmap.org/way/1350844262,Sunset Bar bar || Sunset restaurant
The Beach Restaurant,bar,Railay,,8.0309366,98.822442,,,,,,,,,candidate,,,0.43,overpass_osm,https://www.openstreetmap.org/node/12526618850 | https://www.openstreetmap.org/node/12811105997 | https://www.openstreetmap.org/node/6021681962 | https://www.openstreetmap.org/node/6942648550,The Beach Bar bar || The Beach Restaurant restaurant
The Cliff Cafe & Restaurant,bar,Railay,,8.0171761,98.8342756,,,,,,,,Mo-Su 11:00-24:00,candidate,,,0.43,overpass_osm,https://www.openstreetmap.org/node/4032296361 | https://www.openstreetmap.org/node/7160410427,The Cliff Bar bar || The Cliff Cafe & Restaurant restaurant
Tree House Bar & Restaurant,bar,Railay,,8.0120976,98.8427045,,,,,,,,"PH,Mo-Su 11:00-23:00",candidate,,,0.43,overpass_osm,https://www.openstreetmap.org/node/4620581575 | https://www.openstreetmap.org/node/6300528387,Tree House Bar & Restaurant bar || Tree House restaurant
Twin Lotus,bar,Koh Lanta,,7.6418323,99.0277598,,,,,,,,Mo-Su 10:00-23:00,candidate,,,0.43,overpass_osm,https://www.openstreetmap.org/node/4634421389 | https://www.openstreetmap.org/node/5702410322,Twin Lotus bar || Twin Lotus restaurant
4Play,bar,Koh Phi Phi,,7.7421018,98.7732303,,,,,,,,,candidate,,,0.38,overpass_osm,https://www.openstreetmap.org/node/3681710924,4Play bar
6ixCret Bar,bar,Krabi,Soi 1 Khlong Top,7.5613583,99.0376713,,,,,,,,Mo-Su 10:00-00:00,candidate,,,0.38,overpass_osm,https://www.openstreetmap.org/node/5349092621,6ixCret Bar bar Soi 1 Khlong Top
778th Street Bar,bar,Railay,,8.0329399,98.8269986,,,,,,,,,candidate,,,0.38,overpass_osm,https://www.openstreetmap.org/node/9433220858,778th Street Bar bar
Amy's Bar,bar,Ao Nang,"Soi RCA, Moo 2, Road 4203, Ao Nang, 8100",8.0323877,98.8251065,+66 81 273 8819,,https://amys-bar.com/,,,,,,candidate,,,0.38,overpass_osm,https://www.openstreetmap.org/node/2183877430,"Amy's Bar bar Soi RCA, Moo 2, Road 4203, Ao Nang, 8100"
Ao Nang Pub Crawl,bar,Ao Nang,"344/1, Ao Nang, Ao Nang, 81180",8.0360803,98.8326875,,,,,,,,,candidate,,,0.38,overpass_osm,https://www.openstreetmap.org/node/7040844339,"Ao Nang Pub Crawl bar 344/1, Ao Nang, Ao Nang, 81180"
Avatar Bistrobar,bar,Railay,,8.0115898,98.8419187,,,,,,,,Mo-Su 11:00-22:00,candidate,,,0.38,overpass_osm,https://www.openstreetmap.org/node/4724069796,Avatar Bistrobar bar
Babara Bar,bar,Koh Lanta,,7.624562,99.0333496,,,,,,,,,candidate,,,0.38,overpass_osm,https://www.openstreetmap.org/node/13274011448,Babara Bar bar
Back Pack Bar,bar,Railay,,8.0348702,98.8294976,,,,,,,,,candidate,,,0.38,overpass_osm,https://www.openstreetmap.org/node/7126099430,Back Pack Bar bar
Banana Bar,bar,Koh Phi Phi,,7.74066,98.7738324,,,,,,,,,candidate,,,0.38,overpass_osm,https://www.openstreetmap.org/node/3678511046,Banana Bar bar
Bang Bang Bar,bar,Railay,,8.0116418,98.841936,,,,,,,,"PH,Mo-Su 10:00-24:00",candidate,,,0.38,overpass_osm,https://www.openstreetmap.org/node/4720540590,Bang Bang Bar bar
Beach Bar by Aonang Villa,bar,Railay,,8.0302976,98.823189,,,,,,,,,candidate,,,0.38,overpass_osm,https://www.openstreetmap.org/node/10220743106,Beach Bar by Aonang Villa bar
Beachfront Bar,bar,Koh Phi Phi,"195, Moo 7, Koh Phi Phi, 81000",7.7409085,98.7657186,,,https://www.beachfrontdivers.com/beachfront/bar,,,,,Mo-Su 09:00-21:00,candidate,,,0.38,overpass_osm,https://www.openstreetmap.org/node/5973713294,"Beachfront Bar bar 195, Moo 7, Koh Phi Phi, 81000"
Big Beach Bar,bar,Koh Jum,,7.817754,98.9636183,,,,,,,,,candidate,,,0.38,overpass_osm,https://www.openstreetmap.org/node/6297375785,Big Beach Bar bar
Boat Bar,bar,Railay,,8.0115456,98.8388139,,,,,,,,"PH,Mo-Su 08:00-23:00",candidate,,,0.38,overpass_osm,https://www.openstreetmap.org/node/4727635991,Boat Bar bar
Boogie Bar,bar,Railay,,8.0315676,98.8221591,,,,,,,,,candidate,,,0.38,overpass_osm,https://www.openstreetmap.org/node/3661937770,Boogie Bar bar
Boom Boom Lanta,bar,Koh Lanta,,7.6226852,99.0328037,,,,,,,,,candidate,,,0.38,overpass_osm,https://www.openstreetmap.org/node/13282855284,Boom Boom Lanta bar
Booze Bar (Reggae Bar),bar,Krabi,,8.0609436,98.9196351,,,,,,,,,candidate,,,0.38,overpass_osm,https://www.openstreetmap.org/node/5346320021,Booze Bar (Reggae Bar) bar
Breeze Pool Bar,bar,Tubkaek,,8.0516123,98.756226,,,,,,,,,candidate,,,0.38,overpass_osm,https://www.openstreetmap.org/way/1348631312,Breeze Pool Bar bar
ChaPlu Bar,bar,Railay,,8.0315081,98.8228022,,,,,,,,14:00-23:50,candidate,,,0.38,overpass_osm,https://www.openstreetmap.org/node/4631918689,ChaPlu Bar bar
Chilling Bar,bar,Railay,,8.0383923,98.8330668,,,,,,,,,candidate,,,0.38,overpass_osm,https://www.openstreetmap.org/node/9435668458,Chilling Bar bar
Club Millésime,bar,Tubkaek,,8.0629958,98.7472616,,,,,,,,Mo-Su 06:00-22:00,candidate,,,0.38,overpass_osm,https://www.openstreetmap.org/node/13677522909,Club Millésime bar
Coco Beach Bar,bar,Koh Lanta,,7.5770053,99.0322798,,,,,,,,,candidate,,,0.38,overpass_osm,https://www.openstreetmap.org/node/10298119045,Coco Beach Bar bar
Coco Loco Bar,bar,Koh Lanta,,7.6355858,99.0302986,,,,,,,,,candidate,,,0.38,overpass_osm,https://www.openstreetmap.org/node/12686096428,Coco Loco Bar bar
Coco Vida,bar,Tubkaek,,8.0523447,98.7552982,,,,,,,,,candidate,,,0.38,overpass_osm,https://www.openstreetmap.org/way/1127706930,Coco Vida bar
Cotton Bar,bar,Railay,,8.0344841,98.8188188,,,,,,,,,candidate,,,0.38,overpass_osm,https://www.openstreetmap.org/node/13279207801,Cotton Bar bar
Crazy Bar,bar,Koh Lanta,,7.5992906,99.0364768,,,,,,,,,candidate,,,0.38,overpass_osm,https://www.openstreetmap.org/node/7016849739,Crazy Bar bar
Crystal Bar,bar,Railay,,8.0322057,98.8250873,,,,,,,,11:00-03:00,candidate,,,0.38,overpass_osm,https://www.openstreetmap.org/node/13678315228,Crystal Bar bar
Devy Ale Cafe,bar,Koh Lanta,,7.5712856,99.0338018,,,,,,,,,candidate,,,0.38,overpass_osm,https://www.openstreetmap.org/node/2624917233,Devy Ale Cafe bar
Dojo,bar,Koh Phi Phi,,7.7397867,98.773165,,,,,,,,,candidate,,,0.38,overpass_osm,https://www.openstreetmap.org/node/2034506336,Dojo bar
Feeling Bar,bar,Koh Lanta,,7.6176929,99.0332364,,,,,,,,,candidate,,,0.38,overpass_osm,https://www.openstreetmap.org/node/6357734628,Feeling Bar bar
Freeway 420 Bar,bar,Koh Lanta,,7.5762928,99.0325577,,,,,,,,Mo-Su 12:00-03:00,candidate,,,0.38,overpass_osm,https://www.openstreetmap.org/node/1966243347,Freeway 420 Bar bar
Fruit Shakes,bar,Koh Jum,,7.8486732,98.9727184,,,,,,,,,candidate,,,0.38,overpass_osm,https://www.openstreetmap.org/node/7151175294,Fruit Shakes bar
Funky Monkey,bar,Koh Lanta,,7.6021727,99.0359806,,,,,,,,,candidate,,,0.38,overpass_osm,https://www.openstreetmap.org/way/657970660,Funky Monkey bar
Fusion Bar,bar,Krabi,Path connecting Khlong Khong Beach and Long Beach,7.5913137,99.0324187,,,,,,,,,candidate,,,0.38,overpass_osm,https://www.openstreetmap.org/node/4537594793,Fusion Bar bar Path connecting Khlong Khong Beach and Long Beach
Gypsy Bar,bar,Koh Lanta,,7.6173063,99.0309767,,,,,,,,,candidate,,,0.38,overpass_osm,https://www.openstreetmap.org/node/3283395687,Gypsy Bar bar
Happy Bar,bar,Koh Lanta,,7.6180181,99.0322623,,,,,,,,,candidate,,,0.38,overpass_osm,https://www.openstreetmap.org/node/3328193419,Happy Bar bar
Harry’s Sunset,bar,Koh Lanta,,7.5392729,99.0482609,,,,,,,,,candidate,,,0.38,overpass_osm,https://www.openstreetmap.org/node/6942648541,Harry’s Sunset bar
Hula Hula Bar - Phi Phi Island,bar,Koh Phi Phi,,7.7801074,98.7614898,,,,,,,,,candidate,,,0.38,overpass_osm,https://www.openstreetmap.org/node/6076475654,Hula Hula Bar - Phi Phi Island bar
Ibiza House Pool Bar,bar,Koh Phi Phi,,7.7423052,98.7738044,,,,,,,,,candidate,,,0.38,overpass_osm,https://www.openstreetmap.org/node/4324689791,Ibiza House Pool Bar bar
Infinity Beach Bar,bar,Koh Lanta,,7.5397153,99.0484444,,,,,,,,,candidate,,,0.38,overpass_osm,https://www.openstreetmap.org/node/4130941357,Infinity Beach Bar bar
Irie Bar,bar,Saladan,"439, Moo 3, Saladan, 81150",7.6172874,99.0328732,+66 84 170 6673,,,,,,,Mo 13:00-21:00; Tu 17:00-22:00; We-Th 13:00-22:00; Fr 17:00-22:00; Sa-Su 13:00-22:00,candidate,,,0.38,overpass_osm,https://www.openstreetmap.org/node/3328193420,"Irie Bar bar 439, Moo 3, Saladan, 81150"
Iyara Bar,bar,Koh Lanta,,7.6480313,99.0370272,,,,,,,,,candidate,,,0.38,overpass_osm,https://www.openstreetmap.org/node/13265027993,Iyara Bar bar
JJ Bar,bar,Koh Lanta,,7.6233869,99.0330925,,,,,,,,,candidate,,,0.38,overpass_osm,https://www.openstreetmap.org/node/13282871228,JJ Bar bar
JM Party Bar Aonang,bar,Railay,,8.0320264,98.8252936,+66 92 671 5665,,,,,,,18:00-02:00,candidate,,,0.38,overpass_osm,https://www.openstreetmap.org/node/3676113296,JM Party Bar Aonang bar
Jah Rastafari Reggae Bar,bar,Tubkaek,,8.0423379,98.7623277,,,,,,,,,candidate,,,0.38,overpass_osm,https://www.openstreetmap.org/node/7106647885,Jah Rastafari Reggae Bar bar
Jojo Reggae Bar,bar,Railay,,8.0349753,98.8188056,,,,,,,,Mo-Su 09:00-02:00,candidate,,,0.38,overpass_osm,https://www.openstreetmap.org/node/7221234785,Jojo Reggae Bar bar
Joy Beach Bar,bar,Railay,,8.0122533,98.842868,,,,,,,,,candidate,,,0.38,overpass_osm,https://www.openstreetmap.org/node/660225544,Joy Beach Bar bar
Jungle Bar Krabi,bar,Krabi,,8.0550523,98.916345,,,,,,,,,candidate,,,0.38,overpass_osm,https://www.openstreetmap.org/node/2828528473,Jungle Bar Krabi bar
Jungle Brothers 69,bar,Koh Phi Phi,,7.7335361,98.7817687,,,,,,,,,candidate,,,0.38,overpass_osm,https://www.openstreetmap.org/node/12497632723,Jungle Brothers 69 bar
K.R. Bar&Pub,bar,Railay,,8.0339462,98.8291599,,,,,,,,,candidate,,,0.38,overpass_osm,https://www.openstreetmap.org/node/3676113258,K.R. Bar&Pub bar
Kiss Bar Ao Nang,bar,Krabi,"246/8, Soi RCA, 81180",8.032485,98.8250561,+66 80 777 9374,,https://kissbaraonang.com,https://www.facebook.com/KissBarAoNangToo/,,,,Mo-Su 18:00-03:00,candidate,,,0.38,overpass_osm,https://www.openstreetmap.org/node/3676113261,"Kiss Bar Ao Nang bar 246/8, Soi RCA, 81180"
Klapa Klum Bar,bar,Koh Lanta,,7.5631709,99.0362274,,,,,,,,"Mo-Su,PH 10:00-23:00",candidate,,,0.38,overpass_osm,https://www.openstreetmap.org/node/2624938603,Klapa Klum Bar bar
Koby Bar,bar,Koh Lanta,,7.6094518,99.0323643,,,,,,,,,candidate,,,0.38,overpass_osm,https://www.openstreetmap.org/node/2670360784,Koby Bar bar
Koh Poda Restaurant and Pool Bar,bar,Tubkaek,,8.0628501,98.7466019,,,,,,,,,candidate,,,0.38,overpass_osm,https://www.openstreetmap.org/way/1331937802,Koh Poda Restaurant and Pool Bar bar
Kongsiam Bar,bar,Koh Phi Phi,,7.740617,98.7736228,,,,,,,,,candidate,,,0.38,overpass_osm,https://www.openstreetmap.org/node/3684460421,Kongsiam Bar bar
Korner Bar,bar,Koh Lanta,,7.5966263,99.032966,,,,,,,,Mo-Su 14:00-03:00,candidate,,,0.38,overpass_osm,https://www.openstreetmap.org/node/6163154847,Korner Bar bar
Kredkaew Bar,bar,Tubkaek,,8.0959233,98.7470262,,,,,,,,,candidate,,,0.38,overpass_osm,https://www.openstreetmap.org/node/13664027472,Kredkaew Bar bar
Krit Friendly Bar,bar,Koh Lanta,,7.5614985,99.0375786,+66 83 140 8902,,,https://@kritfriendlybar,,,,24/7,candidate,,,0.38,overpass_osm,https://www.openstreetmap.org/node/2624938606,Krit Friendly Bar bar
La Belle beauty and spa,bar,Krabi,"Soi 13, 81000",8.0334762,98.8303178,+66933954156,,https://www.labellebeautyandspa.com/,,,,https://www.thebestnailsphoenix.com/services,Tu-Su 12:00-02:00,candidate,,,0.38,overpass_osm,https://www.openstreetmap.org/node/4704788689,"La Belle beauty and spa bar Soi 13, 81000"
Last Fisherman Bar,bar,Railay,,8.0286048,98.8250708,,,,,,,,,candidate,,,0.38,overpass_osm,https://www.openstreetmap.org/node/1016378256,Last Fisherman Bar bar
Lays Bar,bar,Koh Lanta,,7.6468122,99.0334415,,,,,,,,,candidate,,,0.38,overpass_osm,https://www.openstreetmap.org/node/6539831613,Lays Bar bar
Leo Bar,bar,Railay,,8.0320218,98.8251924,,,,,,,,,candidate,,,0.38,overpass_osm,https://www.openstreetmap.org/node/4770320325,Leo Bar bar
Local Fruit Shake,bar,Koh Jum,,7.8487897,98.9435045,,,,,,,,,candidate,,,0.38,overpass_osm,https://www.openstreetmap.org/node/7148859505,Local Fruit Shake bar
Lucky one,bar,Koh Lanta,,7.6284389,99.0335728,,,,,,,,,candidate,,,0.38,overpass_osm,https://www.openstreetmap.org/node/13254403650,Lucky one bar
Luna Beach Bar,bar,Railay,,8.038795,98.8157624,,,,,,,,"Mo-Su,PH 10:00-23:00",candidate,,,0.38,overpass_osm,https://www.openstreetmap.org/node/3678616715,Luna Beach Bar bar
Majestic Bar,bar,Koh Lanta,,7.5352546,99.0497852,,,,,,,,,candidate,,,0.38,overpass_osm,https://www.openstreetmap.org/node/2624983036,Majestic Bar bar
Malati Beach Bar | Dusit,bar,Tubkaek,,8.0504473,98.756706,,,,,,,,,candidate,,,0.38,overpass_osm,https://www.openstreetmap.org/node/12475076401,Malati Beach Bar | Dusit bar
Mao Mao Bar,bar,Tubkaek,,8.0532459,98.7585323,,,,,,,,,candidate,,,0.38,overpass_osm,https://www.openstreetmap.org/node/10704507656,Mao Mao Bar bar
Mixing Bar,bar,Koh Lanta,,7.5616234,99.0374979,,,,,,,,,candidate,,,0.38,overpass_osm,https://www.openstreetmap.org/node/2085578933,Mixing Bar bar
Modern Bar,bar,Koh Lanta,,7.5065701,99.06452,,,,,,,,,candidate,,,0.38,overpass_osm,https://www.openstreetmap.org/node/12442265173,Modern Bar bar
Mong Bar,bar,Koh Lanta,,7.5436174,99.0493269,,,,,,,,,candidate,,,0.38,overpass_osm,https://www.openstreetmap.org/node/2337171967,Mong Bar bar
Mook Andabar,bar,Koh Lanta,,7.6381014,99.0293804,,,,,,,,,candidate,,,0.38,overpass_osm,https://www.openstreetmap.org/node/4634421289,Mook Andabar bar
Mr. Guitar Bar,bar,Koh Lanta,,7.6230955,99.0329935,,,,,,,,,candidate,,,0.38,overpass_osm,https://www.openstreetmap.org/node/13282860699,Mr. Guitar Bar bar
Mr. Long Bar,bar,Krabi,"915, m. 2, Soi 9, 81000",8.0388412,98.8380811,+66644291495,,,,,,,Mo-Su 09:00-00:00,candidate,,,0.38,overpass_osm,https://www.openstreetmap.org/node/5665462827,"Mr. Long Bar bar 915, m. 2, Soi 9, 81000"
Mushroom Bar,bar,Koh Lanta,,7.5754364,99.0330797,,,,,,,,,candidate,,,0.38,overpass_osm,https://www.openstreetmap.org/node/2624932364,Mushroom Bar bar
Nang An Bar,bar,Railay,,8.0393723,98.8152532,,,,,,,,,candidate,,,0.38,overpass_osm,https://www.openstreetmap.org/node/4603491702,Nang An Bar bar
Old Town Cowboy,bar,Koh Lanta,,7.5329357,99.0923379,,,,,,,,,candidate,,,0.38,overpass_osm,https://www.openstreetmap.org/node/13279160228,Old Town Cowboy bar
Ole Bar,bar,Krabi,,8.0620316,98.9183307,,,,,,,,,candidate,,,0.38,overpass_osm,https://www.openstreetmap.org/node/12663554585,Ole Bar bar
Ozone Bar,bar,Koh Lanta,,7.617321,99.0293128,,,,,,,,,candidate,,,0.38,overpass_osm,https://www.openstreetmap.org/node/3283395688,Ozone Bar bar
Pangea Beach Bar,bar,Krabi,"Sala Dan, 81150",7.6064113,99.0334947,+66 95 1050815,,,,,,,"Th-Tu,PH 12:00-10:00",candidate,,,0.38,overpass_osm,https://www.openstreetmap.org/node/4540948592,"Pangea Beach Bar bar Sala Dan, 81150"
Pearls Shakes,bar,Koh Lanta,,7.5329665,99.0923094,,,,,,,,,candidate,,,0.38,overpass_osm,https://www.openstreetmap.org/node/13279157961,Pearls Shakes bar
Pirate Bar,bar,Koh Lanta,,7.6141931,99.0338983,,,,,,,,,candidate,,,0.38,overpass_osm,https://www.openstreetmap.org/node/12686094842,Pirate Bar bar
Rasta Bar,bar,Koh Lanta,,7.5443981,99.0465173,,,,,,,,,candidate,,,0.38,overpass_osm,https://www.openstreetmap.org/node/2615560298,Rasta Bar bar
Red Rock,bar,Koh Jum,,7.8526353,98.9456846,,,,,,,,,candidate,,,0.38,overpass_osm,https://www.openstreetmap.org/node/7207950785,Red Rock bar
Reggae Bar Lanta,bar,Koh Lanta,,7.6254844,99.0332079,,,,,,,,,candidate,,,0.38,overpass_osm,https://www.openstreetmap.org/node/13274046572,Reggae Bar Lanta bar
Reggae Muay Thai Bar,bar,Koh Phi Phi,,7.7398913,98.7734593,,,,,,,,,candidate,,,0.38,overpass_osm,https://www.openstreetmap.org/node/4327146492,Reggae Muay Thai Bar bar
Rock Beach Bar,bar,Koh Lanta,,7.6472874,99.0199655,,,,,,,,Mo-Su 08:00-02:00,candidate,,,0.38,overpass_osm,https://www.openstreetmap.org/node/4129606489,Rock Beach Bar bar
Rocks bistro and bar,bar,Koh Lanta,,7.5490705,99.0454336,,,,,,,,,candidate,,,0.38,overpass_osm,https://www.openstreetmap.org/node/5422056523,Rocks bistro and bar bar
Roots Rock Reggae Bar,bar,Railay,,8.033274,98.8278037,,,,,,,,,candidate,,,0.38,overpass_osm,https://www.openstreetmap.org/node/3676113268,Roots Rock Reggae Bar bar
Sabai ba bar,bar,Tubkaek,,8.058713,98.7484063,,,,,,,,,candidate,,,0.38,overpass_osm,https://www.openstreetmap.org/way/1085298052,Sabai ba bar bar
Sabaidee Bar and Restaurant,bar,Krabi,"Krabi, 81130",7.8388941,98.9401479,,,,,,,,,candidate,,,0.38,overpass_osm,https://www.openstreetmap.org/node/2604258388,"Sabaidee Bar and Restaurant bar Krabi, 81130"
San Sunset Bar,bar,Koh Lanta,,7.6146324,99.0305147,,,,,,,,,candidate,,,0.38,overpass_osm,https://www.openstreetmap.org/node/3565069793,San Sunset Bar bar
Sands Beach Club & Bar,bar,Railay,,8.0288076,98.8247977,,,,,,,,,candidate,,,0.38,overpass_osm,https://www.openstreetmap.org/node/10220798510,Sands Beach Club & Bar bar
Seaculture,bar,Koh Lanta,,7.5916651,99.0323392,,,,,,,,"Mo-Su,PH 08:00-22:00",candidate,,,0.38,overpass_osm,https://www.openstreetmap.org/node/5362643126,Seaculture bar
Selfie Bar and Restaurant,bar,Koh Lanta,,7.6444471,99.0214561,,,,,,,,,candidate,,,0.38,overpass_osm,https://www.openstreetmap.org/node/5522380221,Selfie Bar and Restaurant bar
Sip Club Rooftop&Drinks,bar,Koh Lanta,,7.5501393,99.0449138,,,,,,,,Mo-Su 17:00-23:00,candidate,,,0.38,overpass_osm,https://www.openstreetmap.org/node/6300367668,Sip Club Rooftop&Drinks bar
Slinky Bar,bar,Koh Phi Phi,,7.7418735,98.7729656,,,,,,,,09:00-02:00,candidate,,,0.38,overpass_osm,https://www.openstreetmap.org/node/1225189671,Slinky Bar bar
So Good,bar,Koh Lanta,,7.6354238,99.0303982,,,,,,,,,candidate,,,0.38,overpass_osm,https://www.openstreetmap.org/node/12686094823,So Good bar
Solo Bar,bar,Koh Phi Phi,,7.7773912,98.762789,,,,,,,,,candidate,,,0.38,overpass_osm,https://www.openstreetmap.org/node/6076468245,Solo Bar bar
Soul Kitchen,bar,Koh Lanta,,7.5426899,99.0471557,,,,,,,,,candidate,,,0.38,overpass_osm,https://www.openstreetmap.org/node/5344283222,Soul Kitchen bar
Sound Shack,bar,Koh Lanta,,7.5808925,99.0312414,,,,,,,,,candidate,,,0.38,overpass_osm,https://www.openstreetmap.org/node/9631658379,Sound Shack bar
Starwin Lanta Lodge,bar,Koh Lanta,,7.6325948,99.0338773,,,,,,,,,candidate,,,0.38,overpass_osm,https://www.openstreetmap.org/node/13240662363,Starwin Lanta Lodge bar
Stone Bar,bar,Koh Jum,,7.8214392,98.9605983,,,,,,,,Mo-Su 10:00-22:00,candidate,,,0.38,overpass_osm,https://www.openstreetmap.org/node/6283797686,Stone Bar bar
Sun & Soul,bar,Tubkaek,,8.0937424,98.7471885,,,,,,,,,candidate,,,0.38,overpass_osm,https://www.openstreetmap.org/node/13677502777,Sun & Soul bar
Sunflower,bar,Koh Phi Phi,,7.7410789,98.7725706,,,,,,,,,candidate,,,0.38,overpass_osm,https://www.openstreetmap.org/node/2084049255,Sunflower bar
TJ's Restaurant & Sport Bar,bar,Railay,,8.0330895,98.8250632,+6675637119,,,,,,,Mo-Su 12:00-00:00,candidate,,,0.38,overpass_osm,https://www.openstreetmap.org/node/4783717121,TJ's Restaurant & Sport Bar bar
Tank Craft,bar,Krabi,,8.0642943,98.9166813,,,,,,,,,candidate,,,0.38,overpass_osm,https://www.openstreetmap.org/node/10121068172,Tank Craft bar
Tew Lay Bar,bar,Railay,,8.0130353,98.8466367,,,,,,,,,candidate,,,0.38,overpass_osm,https://www.openstreetmap.org/node/3419574711,Tew Lay Bar bar
The Cave,bar,Koh Lanta,,7.5271845,99.0525739,,,,,,,,,candidate,,,0.38,overpass_osm,https://www.openstreetmap.org/node/2624983042,The Cave bar
The Cheeky Monkey Bar,bar,Koh Lanta,,7.6356364,99.0338802,,,,,,,,Mo-Su 16:00-02:00,candidate,,,0.38,overpass_osm,https://www.openstreetmap.org/node/6087709730,The Cheeky Monkey Bar bar
The Dubliner,bar,Koh Phi Phi,,7.7400423,98.7732878,,,,,,,,,candidate,,,0.38,overpass_osm,https://www.openstreetmap.org/node/3678511056,The Dubliner bar
The Indian Bar,bar,Krabi,"Sala Dan, Amphoe Ko Lanta, 81150",7.6335991,99.0312037,,,,,,,,,candidate,,,0.38,overpass_osm,https://www.openstreetmap.org/node/6125010087,"The Indian Bar bar Sala Dan, Amphoe Ko Lanta, 81150"
The Last Bar,bar,Railay,,8.0128979,98.8443166,,,,,,,,,candidate,,,0.38,overpass_osm,https://www.openstreetmap.org/node/5887769611,The Last Bar bar
The Only bar Phi Phi,bar,Koh Phi Phi,,7.7453014,98.7739691,,,,,,,,,candidate,,,0.38,overpass_osm,https://www.openstreetmap.org/node/4620581586,The Only bar Phi Phi bar
The Stones Bar,bar,Koh Phi Phi,,7.7427124,98.7738398,,,,,,,,Mo-Su 10:00-02:00,candidate,,,0.38,overpass_osm,https://www.openstreetmap.org/node/1225189700,The Stones Bar bar
Tribe Beach Bar,bar,Krabi,"273 moo2, 81180",8.0321148,98.8214908,+66812254444,,,,,,,Th-Tu 17:00-01:00,candidate,,,0.38,overpass_osm,https://www.openstreetmap.org/node/6633671185,"Tribe Beach Bar bar 273 moo2, 81180"
Upbeat Bar,bar,Railay,,8.0333587,98.8197583,,,,,,,,,candidate,,,0.38,overpass_osm,https://www.openstreetmap.org/node/9433595818,Upbeat Bar bar
Wat's Bar,bar,Railay,,8.0188951,98.8310662,,,,,,,,,candidate,,,0.38,overpass_osm,https://www.openstreetmap.org/node/12387771952,Wat's Bar bar
Yenta Pub,bar,Krabi,,8.06485,98.9168258,,,,,,,,,candidate,,,0.38,overpass_osm,https://www.openstreetmap.org/node/6185272086,Yenta Pub bar
Yesterday Bar & Café,bar,Railay,,8.0321925,98.8239603,+66 95 426 2093,,,,,,,03:00-02:30,candidate,,,0.38,overpass_osm,https://www.openstreetmap.org/node/13678315224,Yesterday Bar & Café bar
jungle Roots Paradise Bar,bar,Krabi,"1, Soi 9",8.0368122,98.8389464,+66856705108,,,,,,,24/7,candidate,,,0.38,overpass_osm,https://www.openstreetmap.org/node/4879004826,"jungle Roots Paradise Bar bar 1, Soi 9"
sunshine bar,bar,Koh Phi Phi,,7.7360405,98.766087,,,,,,,,,candidate,,,0.38,overpass_osm,https://www.openstreetmap.org/node/4333518916,sunshine bar bar
the Stream Pool Bar,bar,Koh Lanta,,7.550358,99.0433603,,,,,,,,Mo-Su 09:00-21:00,candidate,,,0.38,overpass_osm,https://www.openstreetmap.org/way/672278923,the Stream Pool Bar bar
the Wave Bar,bar,Koh Lanta,,7.5502498,99.044478,,,,,,,,Mo-Su 17:00-24:00,candidate,,,0.38,overpass_osm,https://www.openstreetmap.org/node/6295587675,the Wave Bar bar
ลันตาพาร์คไลฟ์,bar,Koh Lanta,"235 Moo 5, Sala Dan, Koh Lanta, 81150",7.6182036,99.0542485,+66863117433,,http://lantaparklife.com,,,,,10:00-22:00,candidate,,,0.38,overpass_osm,https://www.openstreetmap.org/node/4919193622,"ลันตาพาร์คไลฟ์ bar 235 Moo 5, Sala Dan, Koh Lanta, 81150"
โกดัง 8,bar,Khao Thong,,8.0853011,98.9075377,,,,,,,,,candidate,,,0.38,overpass_osm,https://www.openstreetmap.org/node/5223231621,โกดัง 8 bar
Hippies Bar,biergarten,Koh Phi Phi,,7.7363358,98.7763484,,,,,,,,,candidate,,,0.38,overpass_osm,https://www.openstreetmap.org/node/574386934,Hippies Bar biergarten
Marlin Rock Pub,nightclub,Krabi,"Sala Dan, 81150",7.623253,99.0340223,,,,,,,,,candidate,,,0.38,overpass_osm,https://www.openstreetmap.org/node/6070379664,"Marlin Rock Pub nightclub Sala Dan, 81150"
Dubliner PP Irish Pub,pub,Koh Phi Phi,,7.7401457,98.7732986,,,,,,,,,candidate,,,0.38,overpass_osm,https://www.openstreetmap.org/node/5637281924,Dubliner PP Irish Pub pub
Full Moon Bar,pub,Railay,,8.0355739,98.8187203,,,,,,,,"Mo-Su,PH 15:00-02:00",candidate,,,0.38,overpass_osm,https://www.openstreetmap.org/node/3371398234,Full Moon Bar pub
Grace's Irish Pub,pub,Krabi,,8.061824,98.9174675,,,,,,,,,candidate,,,0.38,overpass_osm,https://www.openstreetmap.org/node/5392895098,Grace's Irish Pub pub
Irish Embassy,pub,Koh Lanta,,7.6033585,99.0362197,,,,,,,,Mo-Su 09:00-00:00,candidate,,,0.38,overpass_osm,https://www.openstreetmap.org/node/4742863324,Irish Embassy pub
Jimmy Cafe,pub,Koh Phi Phi,,7.7766295,98.7631097,,,,,,,,Mo-Su 10:00-23:00,candidate,,,0.38,overpass_osm,https://www.openstreetmap.org/node/9866392492,Jimmy Cafe pub
Komareeyah halal food,pub,Koh Lanta,,7.6033055,99.0652063,,,,,,,,,candidate,,,0.38,overpass_osm,https://www.openstreetmap.org/node/4695054189,Komareeyah halal food pub
Pilsner Bar Koh Lanta,pub,Koh Lanta,,7.6378779,99.0295087,+420 776 062 210,,https://www.plzenskybarkohlanta.cz/,https://www.facebook.com/plzenskybarkohlanta/,,,,,candidate,,,0.38,overpass_osm,https://www.openstreetmap.org/node/12558470899,Pilsner Bar Koh Lanta pub
Pra-nang rock climbing club,pub,Railay,,8.0071905,98.8414401,,,,,,,,,candidate,,,0.38,overpass_osm,https://www.openstreetmap.org/node/4032296334,Pra-nang rock climbing club pub
Railay Beach Café,pub,Railay,,8.0114166,98.8379541,,,,,,,,"PH,Mo-Su 10:00-22:00",candidate,,,0.38,overpass_osm,https://www.openstreetmap.org/node/4034098025,Railay Beach Café pub
The Embassy Irish Pub,pub,Tubkaek,,8.0562469,98.7500247,,,,,,,,,candidate,,,0.38,overpass_osm,https://www.openstreetmap.org/node/1609874539,The Embassy Irish Pub pub
Beach Fruit Bar 2 Aonang Krabi,cafe,Railay,,8.0292545,98.8242524,,,,,,,,Mo-Su 10:00-22:00,candidate,,,0.35,overpass_osm,https://www.openstreetmap.org/node/4631824095 | https://www.openstreetmap.org/node/4631836390,Beach Fruit Bar 2 Aonang Krabi cafe || Beach Fruit Bar Aonang Krabi cafe
Black Canyon Coffee,cafe,Railay,,8.0342283,98.8191501,,,,,,,,Mo-Fr 08:00-21:00,candidate,,,0.35,overpass_osm,https://www.openstreetmap.org/node/10308584502 | https://www.openstreetmap.org/node/3371480070 | https://www.openstreetmap.org/node/3676282141 | https://www.openstreetmap.org/node/7041769587,Black Canyon Coffee cafe || Black Canyon Coffee restaurant
Escape Café,cafe,Saladan,"472 moo 3, tambon saladan, ko lanta, 81150",7.6085438,99.0326807,,,,,,,,Mo-Su 07:00-18:00,candidate,,,0.35,overpass_osm,https://www.openstreetmap.org/node/6408428085 | https://www.openstreetmap.org/way/762672099,"Escape Café cafe || Escape Café cafe 472 moo 3, tambon saladan, ko lanta, 81150"
Owl Coffee,cafe,Railay,,8.0394688,98.8154668,,,,,,,,,candidate,,,0.35,overpass_osm,https://www.openstreetmap.org/node/10705772012 | https://www.openstreetmap.org/node/5515883029,Owl Coffee cafe
The Coffee Club,cafe,Railay,,8.0328295,98.8247457,,,,,,,,,candidate,,,0.35,overpass_osm,https://www.openstreetmap.org/node/10211059113 | https://www.openstreetmap.org/node/12484338924 | https://www.openstreetmap.org/node/4327146792 | https://www.openstreetmap.org/node/7202850585,Coffee Club cafe || Phi Phi Coffee fast_food || The Coffee Club cafe
The U-Rip Coffee&Cafe,cafe,Koh Phi Phi,,7.7358518,98.7780913,,,,,,,,,candidate,,,0.35,overpass_osm,https://www.openstreetmap.org/node/10722772030 | https://www.openstreetmap.org/node/4620581571,The U-Rip Coffee&Cafe cafe
คาเฟ่ อเมซอน,cafe,Railay,,8.0328275,98.8264617,,,,,,,,,candidate,,,0.35,overpass_osm,https://www.openstreetmap.org/node/10216341631 | https://www.openstreetmap.org/node/11530108369 | https://www.openstreetmap.org/node/13429825545 | https://www.openstreetmap.org/node/9435403396,คาเฟ่ อเมซอน cafe
Burguer King,fast_food,Krabi,"459/7, Moo 2, 81180",8.0316168,98.8224261,+66 61 410 4850,,https://burgerking.co.th,,,,,09:00-03:00,candidate,,,0.35,overpass_osm,https://www.openstreetmap.org/node/13666135566 | https://www.openstreetmap.org/node/13677577711 | https://www.openstreetmap.org/node/7182946185,"Burger King fast_food || Burger King fast_food 459/7, Moo 2, 81180 || Burguer King fast_food"
KFC,fast_food,Krabi Town,,8.1086253,98.9277603,1150,,https://www.kfc.co.th/,,,,,"PH,Mo-Su 10:00-22:00",candidate,,,0.35,overpass_osm,https://www.openstreetmap.org/node/10165700207 | https://www.openstreetmap.org/node/10216371680 | https://www.openstreetmap.org/node/11530108269 | https://www.openstreetmap.org/node/3374348431 | https://www.openstreetmap.org/node/4126706326 | https://www.openstreetmap.org/node/4634663439,KFC fast_food
McDonald's,fast_food,Railay,,8.0330622,98.825543,1711,,https://www.mcthai.co.th,,,,,Mo-Su 08:00-22:00,candidate,,,0.35,overpass_osm,https://www.openstreetmap.org/node/10211059115 | https://www.openstreetmap.org/node/1283927148 | https://www.openstreetmap.org/node/5280077320,McDonald's fast_food
Pad Thai Restaurant,fast_food,Railay,,8.034045,98.8191409,,,,,,,,,candidate,,,0.35,overpass_osm,https://www.openstreetmap.org/node/2179815175 | https://www.openstreetmap.org/node/6910855286,Pad Thai Restaurant restaurant || Pad Thai fast_food
The Pizza Company,fast_food,Krabi Town,,8.0644289,98.9155199,+66 93 679 8099,,https://www.1112.com/,,,,,Mo-Su 10:00-22:00,candidate,,,0.35,overpass_osm,https://www.openstreetmap.org/node/13666135560 | https://www.openstreetmap.org/node/6167756190 | https://www.openstreetmap.org/node/7023936285,The Pizza Company fast_food || The Pizza Company restaurant
Night Food Market,food_court,Railay,,8.035275,98.8311252,,,,,,,,,candidate,,,0.35,overpass_osm,https://www.openstreetmap.org/node/11461823866 | https://www.openstreetmap.org/node/6355895988,Night Food Market food_court || Night Food Market restaurant
Breakfast & Friend 2nd,restaurant,Koh Phi Phi,,7.7395534,98.7730244,,,,,,,,,candidate,,,0.35,overpass_osm,https://www.openstreetmap.org/node/6531827063 | https://www.openstreetmap.org/node/6531852585,Breakfast & Friend 2nd restaurant || Breakfast & Friend restaurant
Cha Cha Restaurant,restaurant,Krabi,,7.5731534,99.0351776,,,,,,,,,candidate,,,0.35,overpass_osm,https://www.openstreetmap.org/node/2624840482 | https://www.openstreetmap.org/node/6354160217,Cha Cha Restaurant restaurant || Cha Cha restaurant
Cook-Kai Restaurant,restaurant,Koh Lanta,,7.6337191,99.031182,,,,,,,,,candidate,,,0.35,overpass_osm,https://www.openstreetmap.org/node/4131803694 | https://www.openstreetmap.org/way/1267655614,Cook Kai Restaurant restaurant || Cook-Kai Restaurant restaurant
Easy Cafe,restaurant,Koh Lanta,,7.633942,99.0310441,,,,,,,,,candidate,,,0.35,overpass_osm,https://www.openstreetmap.org/node/2241689504 | https://www.openstreetmap.org/node/6283797687 | https://www.openstreetmap.org/way/1267655832,Easy Bar bar || Easy Bar restaurant || Easy Cafe cafe
Knock-Out Restaurant,restaurant,Koh Phi Phi,,7.7605232,98.7713575,,,https://www.tripadvisor.com/Restaurant_Review-g303908-d3864052-Reviews-Knock_Out_bar-Ko_Phi_Phi_Don_Krabi_Province.html,,,,,,candidate,,,0.35,overpass_osm,https://www.openstreetmap.org/node/2179807061 | https://www.openstreetmap.org/node/3282215619,Knock Out bar restaurant || Knock-Out Restaurant restaurant
KoDam Kitchen,restaurant,Railay,,8.0399585,98.819223,,,,,,,,Mo-Su 10:00-23:00,candidate,,,0.35,overpass_osm,https://www.openstreetmap.org/node/13276773801 | https://www.openstreetmap.org/node/5155012521,KoDam Kitchen restaurant
Krua-Lung-Sang,restaurant,Krabi,,7.5687636,99.0362284,,,,,,,,,candidate,,,0.35,overpass_osm,https://www.openstreetmap.org/node/6354197088 | https://www.openstreetmap.org/node/6518159594,Krua Lung Sang restaurant || Krua-Lung-Sang restaurant
Kwan's Cookery,restaurant,Krabi,42/4 Moo 3,7.6086496,99.0364785,+66 91 704 7742,,https://www.facebook.com/Kwans-Cookery-530423363667902/,https://www.facebook.com/Kwans-Cookery-530423363667902/,https://www.instagram.com/kwanscookerykohlanta,,,Mo-Su 07:00-22:00,candidate,,,0.35,overpass_osm,https://www.openstreetmap.org/node/6355885439 | https://www.openstreetmap.org/node/9653889811,Kwan's Cookery restaurant || Kwan's Cookery restaurant 42/4 Moo 3
La casetta Della Casa,restaurant,Koh Phi Phi,,7.7775244,98.7626939,,,,,,,,,candidate,,,0.35,overpass_osm,https://www.openstreetmap.org/node/6076468244 | https://www.openstreetmap.org/node/6076475655,La casetta Della Casa restaurant
LightHouse Kitchen,restaurant,Railay,,8.0420327,98.8124633,,,,,,,,,candidate,,,0.35,overpass_osm,https://www.openstreetmap.org/node/11360073177 | https://www.openstreetmap.org/node/4542762891,Light House Bar bar || LightHouse Kitchen restaurant
MaMa's Chicken Restaurant,restaurant,Railay,,8.0202207,98.8361498,,,,,,,,07:00-22:00,candidate,,,0.35,overpass_osm,https://www.openstreetmap.org/node/10232324707 | https://www.openstreetmap.org/node/10763152399 | https://www.openstreetmap.org/way/1335911757,MaMa's Chicken Restaurant restaurant || Mama Chicken restaurant || Mama's Chicken fast_food
Mama Kitchen,restaurant,Railay,,8.0380672,98.8332458,,,,,,,,Su-Th 10:00-21:00,candidate,,,0.35,overpass_osm,https://www.openstreetmap.org/node/13282898439 | https://www.openstreetmap.org/node/3660286625,Mama Bar bar || Mama Kitchen restaurant
Mangrove Restaurant,restaurant,Railay,,8.0122286,98.8402101,,,,,,,,"PH,Mo-Su 10:00-22:00",candidate,,,0.35,overpass_osm,https://www.openstreetmap.org/node/12526618847 | https://www.openstreetmap.org/node/6324985385,Mangrove Restaurant restaurant || Mangrove restaurant
Oasis Restaurant,restaurant,Koh Lanta,,7.6377311,99.0309461,+66 828014704,,https://www.facebook.com/oasis.pp,,,,,,candidate,,,0.35,overpass_osm,https://www.openstreetmap.org/node/12526618848 | https://www.openstreetmap.org/node/13437594701,Oasis Restaurant restaurant || The Oasis restaurant
P.P. Wang Ta Fu,restaurant,Koh Phi Phi,,7.7389496,98.771022,,,,,,,,,candidate,,,0.35,overpass_osm,https://www.openstreetmap.org/node/6021701052 | https://www.openstreetmap.org/node/6120058426,P.P. Wang Ta Fu cafe || P.P. Wang Ta Fu restaurant
Pirates House Restaurant,restaurant,Krabi Town,,8.0631085,98.9171604,,,https://www.facebook.com/profile.php?id=185345008540142,,,,,,candidate,,,0.35,overpass_osm,https://www.openstreetmap.org/node/1613129554 | https://www.openstreetmap.org/node/4620239989 | https://www.openstreetmap.org/node/7036207031,Pirates House Restaurant restaurant || Pirates House restaurant
Rock View Terrace,restaurant,Koh Jum,,7.8548568,98.9477252,,,,,,,,,candidate,,,0.35,overpass_osm,https://www.openstreetmap.org/node/7151144669 | https://www.openstreetmap.org/node/7151144670,Rock View Terrace cafe || Rock View Terrace restaurant
Sawasdee,restaurant,Railay,,8.0114043,98.838568,,,,,,,,,candidate,,,0.35,overpass_osm,https://www.openstreetmap.org/node/10292816650 | https://www.openstreetmap.org/node/4549084380 | https://www.openstreetmap.org/node/4699684693,Sawasdee restaurant || Swasdee restaurant
Tanta Restaurant,restaurant,Railay,,8.0315929,98.8229442,+66815394400,,,https://www.facebook.com/TantaRestaurant/,,,,10:00-23:00,candidate,,,0.35,overpass_osm,https://www.openstreetmap.org/node/11360074070 | https://www.openstreetmap.org/node/5348534821,Tanta Restaurant restaurant
Thai food,restaurant,Koh Lanta,,7.6174742,99.0316806,,,,,,,,,candidate,,,0.35,overpass_osm,https://www.openstreetmap.org/node/4242432890 | https://www.openstreetmap.org/node/6177967985,Thai food restaurant
The Heart Restaurant,restaurant,Railay,,8.011971,98.8425344,,,,,,,,"PH,Mo-Su 10:00-23:00",candidate,,,0.35,overpass_osm,https://www.openstreetmap.org/node/4815028321 | https://www.openstreetmap.org/node/5508702821,The Heart Restaurant restaurant || The Heart cafe
The Terrace,restaurant,Krabi Town,,8.0557508,98.9202392,,,,,,,,Mo-Su 11:30-22:00,candidate,,,0.35,overpass_osm,https://www.openstreetmap.org/node/10704304184 | https://www.openstreetmap.org/way/278488828,The Terrace restaurant
View Point Restaurant,restaurant,Koh Phi Phi,,7.7633854,98.769445,,,,,,,,,candidate,,,0.35,overpass_osm,https://www.openstreetmap.org/node/2179811155 | https://www.openstreetmap.org/node/5400642523 | https://www.openstreetmap.org/node/7235132985,View Point Cafe cafe || View Point Restaurant restaurant || Viewpoint Restaurant restaurant
ร้านก๋วยเตี๋ยวเป็ด Duck Noodles,restaurant,Krabi Town,,8.1084617,98.9032502,,,,,,,,,candidate,,,0.35,overpass_osm,https://www.openstreetmap.org/node/6467350663 | https://www.openstreetmap.org/way/689401810,ร้านก๋วยเตี๋ยวเป็ด DUCKNOODLES restaurant || ร้านก๋วยเตี๋ยวเป็ด Duck Noodles restaurant
Amena,cafe,Koh Phi Phi,,7.7417241,98.7746633,,,,,,,,,candidate,,,0.3,overpass_osm,https://www.openstreetmap.org/node/4326439789,Amena cafe
Andaman Café,cafe,Koh Phi Phi,,7.736131,98.777146,,,,,,,,,candidate,,,0.3,overpass_osm,https://www.openstreetmap.org/node/12280395000,Andaman Café cafe
Arthaya Cafe,cafe,Koh Lanta,,7.5887277,99.0358104,,,,,,,,,candidate,,,0.3,overpass_osm,https://www.openstreetmap.org/node/13432135401,Arthaya Cafe cafe
Au Ha Coffee,cafe,Railay,,8.0391536,98.8155074,,,,,,,,,candidate,,,0.3,overpass_osm,https://www.openstreetmap.org/node/4601176490,Au Ha Coffee cafe
Baahra Café,cafe,Koh Lanta,,7.6389397,99.0339382,,,,,,,,,candidate,,,0.3,overpass_osm,https://www.openstreetmap.org/node/13243202365,Baahra Café cafe
Baan Ton Mai,cafe,Nopparat Thara,,8.0731705,98.8002264,,,,,,,,,candidate,,,0.3,overpass_osm,https://www.openstreetmap.org/node/7095123485,Baan Ton Mai cafe
Breakfast,cafe,Koh Lanta,,7.6464096,99.0363143,,,,,,,,,candidate,,,0.3,overpass_osm,https://www.openstreetmap.org/node/5484048422,Breakfast cafe
Broken Pan,cafe,Railay,,8.0340766,98.8296384,,,,,,,,,candidate,,,0.3,overpass_osm,https://www.openstreetmap.org/node/11436604233,Broken Pan cafe
Cafe Amazon,cafe,Krabi,,8.1017866,98.9673073,,,,,,,,Mo-Su 06:00-20:00,candidate,,,0.3,overpass_osm,https://www.openstreetmap.org/node/13651459701,Cafe Amazon cafe
Café Amszon,cafe,Nopparat Thara,,8.0781009,98.857088,,,,,,,,,candidate,,,0.3,overpass_osm,https://www.openstreetmap.org/node/13644768202,Café Amszon cafe
Capuchin,cafe,Railay,,8.0404299,98.8173632,,,,,,,,,candidate,,,0.3,overpass_osm,https://www.openstreetmap.org/node/4246076700,Capuchin cafe
Carlitos Bar,cafe,Koh Phi Phi,,7.7377796,98.7737671,,,,,,,,,candidate,,,0.3,overpass_osm,https://www.openstreetmap.org/way/317137982,Carlitos Bar cafe
Casa de Café,cafe,Koh Lanta,,7.5929278,99.0353448,,,,,,,,Mo-Su 08:30-20:00,candidate,,,0.3,overpass_osm,https://www.openstreetmap.org/node/7125411885,Casa de Café cafe
Chalita Cafe & Restaurant,cafe,Krabi,,8.0624669,98.9184932,,,,,,,,,candidate,,,0.3,overpass_osm,https://www.openstreetmap.org/node/2647610165,Chalita Cafe & Restaurant cafe
Choojii Coffee,cafe,Krabi,"31, ถนนมหาราช ซอย 7, 81000",8.0662478,98.9139903,+66 61 959 7969,,,https://www.facebook.com/profile.php?id=61581747188586,https://www.instagram.com/choojiicoffee,,,Mo-Sa 07:30-16:00,candidate,,,0.3,overpass_osm,https://www.openstreetmap.org/node/13462602119,"Choojii Coffee cafe 31, ถนนมหาราช ซอย 7, 81000"
Choop Coffee Break,cafe,Railay,,8.0114139,98.838413,,,,,,,,"PH,Mo-Su 08:30-21:00",candidate,,,0.3,overpass_osm,https://www.openstreetmap.org/node/4782773121,Choop Coffee Break cafe
Coffe Cup Club Express,cafe,Koh Lanta,,7.5700664,99.0356484,,,,,,,,,candidate,,,0.3,overpass_osm,https://www.openstreetmap.org/node/6354197091,Coffe Cup Club Express cafe
Coffee Beach,cafe,Railay,,8.0381241,98.8162107,,,,,,,,"Mo-Su,PH 09:00-21:00",candidate,,,0.3,overpass_osm,https://www.openstreetmap.org/way/161386137,Coffee Beach cafe
Coffee House,cafe,Koh Lanta,,7.6296817,99.0334842,,,,,,,,,candidate,,,0.3,overpass_osm,https://www.openstreetmap.org/node/13240658619,Coffee House cafe
Coffee My House,cafe,Koh Lanta,,7.6504302,99.0376286,,,,,,,,,candidate,,,0.3,overpass_osm,https://www.openstreetmap.org/node/2337153912,Coffee My House cafe
Coffee Station,cafe,Railay,,8.0116743,98.8389711,,,,,,,,"PH,Mo-Su 09:00-21:30",candidate,,,0.3,overpass_osm,https://www.openstreetmap.org/node/5276639623,Coffee Station cafe
Coffee a Day,cafe,Koh Phi Phi,,7.7363611,98.7762634,,,,,,,,,candidate,,,0.3,overpass_osm,https://www.openstreetmap.org/node/12280852448,Coffee a Day cafe
Coffee' Love,cafe,Koh Lanta,,7.6420408,99.0346087,,,,,,,,,candidate,,,0.3,overpass_osm,https://www.openstreetmap.org/node/2337153921,Coffee' Love cafe
D's Books,cafe,Koh Phi Phi,,7.7390508,98.7724921,,,,,,,,,candidate,,,0.3,overpass_osm,https://www.openstreetmap.org/node/574387028,D's Books cafe
Darin Coffee & Restaraunt,cafe,Nopparat Thara,,8.0519008,98.7698864,,,,,,,,,candidate,,,0.3,overpass_osm,https://www.openstreetmap.org/node/4023810597,Darin Coffee & Restaraunt cafe
Doasis,cafe,Railay,,8.0293386,98.8628826,,,,,,,,,candidate,,,0.3,overpass_osm,https://www.openstreetmap.org/node/10294967596,Doasis cafe
Doi Chaang,cafe,Krabi,,8.0968059,98.9824035,,,,,,,,,candidate,,,0.3,overpass_osm,https://www.openstreetmap.org/node/7041784186,Doi Chaang cafe
Dr. Cat Cafe,cafe,Railay,,8.0325279,98.8240981,+66 89 594 0095,,,https://www.facebook.com/Drcat-cafe/1623591711304140/,,,,14:00-01:00,candidate,,,0.3,overpass_osm,https://www.openstreetmap.org/node/6198781187,Dr. Cat Cafe cafe
Fast Manta Dive Center,cafe,Railay,,8.0321058,98.8213787,,,,,,,,,candidate,,,0.3,overpass_osm,https://www.openstreetmap.org/node/9763404417,Fast Manta Dive Center cafe
Fruit tree coffee shop,cafe,Koh Lanta,,7.598109,99.035985,,,,,,,,,candidate,,,0.3,overpass_osm,https://www.openstreetmap.org/node/4512075132,Fruit tree coffee shop cafe
Galapagos,cafe,Koh Lanta,,7.5415118,99.0478944,,,,,,,,,candidate,,,0.3,overpass_osm,https://www.openstreetmap.org/node/9591503317,Galapagos cafe
Grandma's house,cafe,Koh Lanta,,7.532192,99.0934742,,,,,,,,,candidate,,,0.3,overpass_osm,https://www.openstreetmap.org/node/7220579685,Grandma's house cafe
Hidden Tree,cafe,Koh Lanta,,7.6005185,99.0366391,,,,,,,,,candidate,,,0.3,overpass_osm,https://www.openstreetmap.org/node/13640607001,Hidden Tree cafe
Inthanin Coffee,cafe,Khao Thong,,8.1060482,98.9159451,,,,,,,,,candidate,,,0.3,overpass_osm,https://www.openstreetmap.org/node/3371440884,Inthanin Coffee cafe
JaJa Cafe & Spice,cafe,Koh Phi Phi,,7.7393743,98.7727324,,,,,,,,,candidate,,,0.3,overpass_osm,https://www.openstreetmap.org/node/7036182115,JaJa Cafe & Spice cafe
KK Café,cafe,Railay,,8.0419326,98.8452065,,,,,,,,,candidate,,,0.3,overpass_osm,https://www.openstreetmap.org/node/13730431130,KK Café cafe
Klong Muang Cafe,cafe,Tubkaek,,8.0529461,98.759731,,,,,,,,,candidate,,,0.3,overpass_osm,https://www.openstreetmap.org/node/10706925788,Klong Muang Cafe cafe
Lanta Coffee Cup Club,cafe,Krabi,"242 Moo2, Sala Dan, Ko Lanta District, Krabi 81150",7.5983658,99.0360142,,,,,,,,,candidate,,,0.3,overpass_osm,https://www.openstreetmap.org/node/11808871461,"Lanta Coffee Cup Club cafe 242 Moo2, Sala Dan, Ko Lanta District, Krabi 81150"
Lanta's café,cafe,Koh Lanta,,7.6640865,99.0991744,,,,,,,,Mo-Su 09:00-21:00,candidate,,,0.3,overpass_osm,https://www.openstreetmap.org/node/4874182621,Lanta's café cafe
Lazy Bird,cafe,Koh Lanta,,7.5772893,99.0345839,,,,,,,,,candidate,,,0.3,overpass_osm,https://www.openstreetmap.org/node/10296254453,Lazy Bird cafe
Le Rendez Vous,cafe,Koh Phi Phi,,7.7620478,98.770013,,,,,,,,,candidate,,,0.3,overpass_osm,https://www.openstreetmap.org/node/2266563965,Le Rendez Vous cafe
Lekker Cafe,cafe,Railay,,8.0381653,98.8331838,,,,,,,,,candidate,,,0.3,overpass_osm,https://www.openstreetmap.org/node/9435683585,Lekker Cafe cafe
Lion & Shark,cafe,Railay,,8.0321223,98.8230043,,,,,,,,,candidate,,,0.3,overpass_osm,https://www.openstreetmap.org/node/4730134090,Lion & Shark cafe
Little Monkey Cafe,cafe,Koh Phi Phi,,7.7385606,98.7663578,,,,,,,,,candidate,,,0.3,overpass_osm,https://www.openstreetmap.org/node/10722767517,Little Monkey Cafe cafe
Long Beach Bar and cafe,cafe,Nopparat Thara,,8.0449859,98.7846067,,,,,,,,Mo-Su 10:00-21:00,candidate,,,0.3,overpass_osm,https://www.openstreetmap.org/node/10705794374,Long Beach Bar and cafe cafe
Long Beach Café,cafe,Koh Lanta,,7.614839,99.032858,,,,,,,,07:00-21:00,candidate,,,0.3,overpass_osm,https://www.openstreetmap.org/node/3377385193,Long Beach Café cafe
Madam Guesthouse,cafe,Krabi,,8.0625896,98.9179957,+66 93 579 1095,,,,,,,,candidate,,,0.3,overpass_osm,https://www.openstreetmap.org/node/1178820127,Madam Guesthouse cafe
Madras Cafè,cafe,Railay,,8.0322259,98.8240231,+66 82 106 9930,,,,,,,11:00-24:00,candidate,,,0.3,overpass_osm,https://www.openstreetmap.org/node/11365983769,Madras Cafè cafe
Mango Garden,cafe,Koh Phi Phi,,7.7387953,98.771376,,,,,,,,,candidate,,,0.3,overpass_osm,https://www.openstreetmap.org/node/4316001492,Mango Garden cafe
May & Mark's House,cafe,Krabi,"34, Maharaj Road Soi 10, Krabi, 81000, TH",8.0651211,98.9160603,+66 81 396 6114,,https://www.facebook.com/MayAndMarkHouse/,,,,,Mo-Su 07:00-21:00,candidate,,,0.3,overpass_osm,https://www.openstreetmap.org/node/3432501609,"May & Mark's House cafe 34, Maharaj Road Soi 10, Krabi, 81000, TH"
Military cafe and bar,cafe,Tubkaek,,8.0366599,98.7656253,,,,,,,,,candidate,,,0.3,overpass_osm,https://www.openstreetmap.org/node/6199976985,Military cafe and bar cafe
Mitr-O-Cha,cafe,Krabi,,8.0626123,98.9188182,,,,,,,,,candidate,,,0.3,overpass_osm,https://www.openstreetmap.org/node/6361791064,Mitr-O-Cha cafe
Nana Café,cafe,Koh Phi Phi,,7.7378713,98.7676379,,,,,,,,08:00-16:30,candidate,,,0.3,overpass_osm,https://www.openstreetmap.org/node/13666094303,Nana Café cafe
OG Cafe,cafe,Koh Lanta,,7.6076706,99.0359464,,,,,,,,,candidate,,,0.3,overpass_osm,https://www.openstreetmap.org/node/12686094844,OG Cafe cafe
Olala Café,cafe,Koh Lanta,,7.5393736,99.0861909,,,,,,,,,candidate,,,0.3,overpass_osm,https://www.openstreetmap.org/node/13179799444,Olala Café cafe
PakChee Café and Restaurant,cafe,Koh Lanta,,7.6019636,99.0360942,+66 80 588 3653,,,https://61553152335779,,,,Mo-Su 08:00-17:00,candidate,,,0.3,overpass_osm,https://www.openstreetmap.org/node/13321823202,PakChee Café and Restaurant cafe
Pakarang Vintage Bookstore and Café,cafe,Krabi,Thanon Utrakit,8.0645094,98.9174517,+66 75 611 196,,,,,,,Mo-Su 07:30-20:00,candidate,,,0.3,overpass_osm,https://www.openstreetmap.org/node/4707577689,Pakarang Vintage Bookstore and Café cafe Thanon Utrakit
Peak Cafe,cafe,Krabi,15/2,7.5743135,99.0350229,,,,,,,,,candidate,,,0.3,overpass_osm,https://www.openstreetmap.org/node/2624836790,Peak Cafe cafe 15/2
Phi Phi Bakery,cafe,Koh Phi Phi,,7.738459,98.7720087,,,,,,,,,candidate,,,0.3,overpass_osm,https://www.openstreetmap.org/node/1150191207,Phi Phi Bakery cafe
Pond Coffee,cafe,Koh Jum,,7.8460984,98.9647886,,,,,,,,,candidate,,,0.3,overpass_osm,https://www.openstreetmap.org/node/7148859501,Pond Coffee cafe
Pop-Up Café,cafe,Koh Jum,,7.8221516,98.9630994,,,,,,,,,candidate,,,0.3,overpass_osm,https://www.openstreetmap.org/node/7148832258,Pop-Up Café cafe
Punthai Coffee,cafe,Krabi,,8.0617559,98.9195837,,,,,,,,"PH,Mo-Su 06:00-18:00",candidate,,,0.3,overpass_osm,https://www.openstreetmap.org/node/11556000998,Punthai Coffee cafe
Red Ginger Café,cafe,Railay,,8.0392743,98.8173224,,,,,,,,,candidate,,,0.3,overpass_osm,https://www.openstreetmap.org/node/11378820453,Red Ginger Café cafe
Roti 12,cafe,Railay,,8.0340164,98.8288495,,,,,,,,,candidate,,,0.3,overpass_osm,https://www.openstreetmap.org/node/6021722098,Roti 12 cafe
Sala café,cafe,Koh Lanta,,7.6505517,99.0374968,,,,,,,,,candidate,,,0.3,overpass_osm,https://www.openstreetmap.org/node/4572503190,Sala café cafe
Sayang Cafeteria,cafe,Koh Lanta,,7.6193364,99.0288469,,,,,,,,,candidate,,,0.3,overpass_osm,https://www.openstreetmap.org/node/13332877801,Sayang Cafeteria cafe
Secret Bowl,cafe,Krabi,"292, Tambon Sala Dan, 81150",7.5821508,99.0352656,+66 64 787 0063,,,,,,,,candidate,,,0.3,overpass_osm,https://www.openstreetmap.org/node/13333844801,"Secret Bowl cafe 292, Tambon Sala Dan, 81150"
Some Otter Room,cafe,Krabi,"23/26, Beach Road 4203, 81180",8.0326347,98.8237454,,,https://someotterroom.com,,,,,,candidate,,,0.3,overpass_osm,https://www.openstreetmap.org/way/1489340439,"Some Otter Room cafe 23/26, Beach Road 4203, 81180"
Somtam Anya,cafe,Tubkaek,,8.0648317,98.7442551,,,,,,,,,candidate,,,0.3,overpass_osm,https://www.openstreetmap.org/node/12543619601,Somtam Anya cafe
Sprucy Cafe,cafe,Krabi,ถนนอุตรกิจ,8.0710914,98.9163469,,,,,,,,,candidate,,,0.3,overpass_osm,https://www.openstreetmap.org/node/5781628953,Sprucy Cafe cafe ถนนอุตรกิจ
Starbucks,cafe,Ao Nang,"328/4, Ao Nang Clif Beach, Ao Nang, 81000",8.033007,98.8253348,,,https://www.starbucks.co.th/,,,,,Mo-Su 07:00-00:00,candidate,,,0.3,overpass_osm,https://www.openstreetmap.org/node/633029472,"Starbucks cafe 328/4, Ao Nang Clif Beach, Ao Nang, 81000"
Starbucks @Voyager Café,cafe,Tubkaek,,8.0938563,98.7476675,,,,,,,,,candidate,,,0.3,overpass_osm,https://www.openstreetmap.org/node/11406991569,Starbucks @Voyager Café cafe
Tae Leng Cafe,cafe,Koh Lanta,,7.5900248,99.1166041,,,,,,,,,candidate,,,0.3,overpass_osm,https://www.openstreetmap.org/node/12770869497,Tae Leng Cafe cafe
Tan Cafe,cafe,Khao Thong,,8.0657994,98.9167089,0826495936,,,,,,,Th-Tu 09:30-19:00,candidate,,,0.3,overpass_osm,https://www.openstreetmap.org/node/10896648927,Tan Cafe cafe
The BACKYARD,cafe,Krabi,"511, Sala Dan, 81150",7.6175711,99.0332819,095 696 1553,,,https://backyardlanta,,,,Mo-Su 07:30-17:00,candidate,,,0.3,overpass_osm,https://www.openstreetmap.org/node/12413974101,"The BACKYARD cafe 511, Sala Dan, 81150"
The Barrel Café & Wine merchant,cafe,Railay,,8.0432443,98.8118454,,,,,,,,,candidate,,,0.3,overpass_osm,https://www.openstreetmap.org/node/11360073174,The Barrel Café & Wine merchant cafe
The Glass House,cafe,Koh Lanta,,7.6161578,99.033192,,,https://www.facebook.com/TheGlassHouseLanta,,,,,Su-Fr 08:00-18:00,candidate,,,0.3,overpass_osm,https://www.openstreetmap.org/node/13516746561,The Glass House cafe
The Summer Brunch,cafe,Koh Phi Phi,,7.7393239,98.7705226,,,,,,,,,candidate,,,0.3,overpass_osm,https://www.openstreetmap.org/node/13666135558,The Summer Brunch cafe
Time to Chill Coffee House,cafe,Railay,,8.02051,98.8325605,,,,,,,,,candidate,,,0.3,overpass_osm,https://www.openstreetmap.org/node/12361682011,Time to Chill Coffee House cafe
Together Cafe,cafe,Koh Lanta,,7.6063791,99.0358703,,,,,,,,,candidate,,,0.3,overpass_osm,https://www.openstreetmap.org/node/12686094845,Together Cafe cafe
Wedrink,cafe,Koh Lanta,,7.6381314,99.0341404,,,,,,,,,candidate,,,0.3,overpass_osm,https://www.openstreetmap.org/node/13243217596,Wedrink cafe
Well Craft Cafe,cafe,Railay,,8.0375993,98.8334037,,,,,,,,,candidate,,,0.3,overpass_osm,https://www.openstreetmap.org/node/9435671048,Well Craft Cafe cafe
White Sand,cafe,Tubkaek,,8.0650106,98.7441335,,,,,,,,,candidate,,,0.3,overpass_osm,https://www.openstreetmap.org/node/12543619701,White Sand cafe
Yenly Yours' Cafe,cafe,Railay,,8.0428157,98.8111182,,,,,,,,,candidate,,,0.3,overpass_osm,https://www.openstreetmap.org/node/10219219457,Yenly Yours' Cafe cafe
bean/Co,cafe,Koh Phi Phi,,7.7613839,98.7723777,,,,,,,,,candidate,,,0.3,overpass_osm,https://www.openstreetmap.org/way/329706281,bean/Co cafe
ร้านชะลอม,cafe,Krabi,"226, 226 Sai Thai, Mueang Krabi District, Krabi 81000, 81000",8.0803509,98.8574256,0908787741,,,,,,,,candidate,,,0.3,overpass_osm,https://www.openstreetmap.org/node/6986342985,"ร้านชะลอม cafe 226, 226 Sai Thai, Mueang Krabi District, Krabi 81000, 81000"
เชฟยู ข้าวต้มพอกิน,cafe,Nopparat Thara,,8.0614789,98.8235097,,,,,,,,,candidate,,,0.3,overpass_osm,https://www.openstreetmap.org/node/12509384301,เชฟยู ข้าวต้มพอกิน cafe
1 Stop Take Away,fast_food,Railay,,8.0114232,98.8383007,,,,,,,,"PH,Mo-Su 10:00-22:30",candidate,,,0.3,overpass_osm,https://www.openstreetmap.org/node/4183776259,1 Stop Take Away fast_food
Bow‘s Pizza,fast_food,Koh Lanta,,7.5692296,99.035826,089 8307 519,,https://bowpizza.jimdofree.com/,,,,,17:00-22:00,candidate,,,0.3,overpass_osm,https://www.openstreetmap.org/node/6360074042,Bow‘s Pizza fast_food
Fast Food Boats,fast_food,Railay,,8.0059797,98.8374445,,,,,,,,,candidate,,,0.3,overpass_osm,https://www.openstreetmap.org/node/5612980920,Fast Food Boats fast_food
Jah-hyan Halal food,fast_food,Railay,,8.0352623,98.8328561,,,,,,,,,candidate,,,0.3,overpass_osm,https://www.openstreetmap.org/node/11443368193,Jah-hyan Halal food fast_food
Mana Thai Food,fast_food,Railay,,8.0330382,98.8280412,,,,,,,,,candidate,,,0.3,overpass_osm,https://www.openstreetmap.org/node/6021695063,Mana Thai Food fast_food
Pizza Corner,fast_food,Koh Phi Phi,,7.7409164,98.7736934,,,,,,,,,candidate,,,0.3,overpass_osm,https://www.openstreetmap.org/node/10722854838,Pizza Corner fast_food
Pizza Slide,fast_food,Koh Phi Phi,,7.7386961,98.7707854,,,,,,,,,candidate,,,0.3,overpass_osm,https://www.openstreetmap.org/node/6120058432,Pizza Slide fast_food
Rom & Dow,fast_food,Koh Phi Phi,,7.7436115,98.7743914,,,,,,,,,candidate,,,0.3,overpass_osm,https://www.openstreetmap.org/node/4620581581,Rom & Dow fast_food
Roti Stall,fast_food,Koh Phi Phi,,7.7377638,98.7760407,,,,,,,,,candidate,,,0.3,overpass_osm,https://www.openstreetmap.org/node/7040117148,Roti Stall fast_food
Shakes,fast_food,Koh Phi Phi,,7.7364532,98.7763734,,,,,,,,,candidate,,,0.3,overpass_osm,https://www.openstreetmap.org/node/3233120851,Shakes fast_food
Spicoli's Pizza and Grill,fast_food,Railay,,8.041444,98.8167529,,,,,,,,,candidate,,,0.3,overpass_osm,https://www.openstreetmap.org/node/13276773701,Spicoli's Pizza and Grill fast_food
Subway,fast_food,Railay,,8.032781,98.8245619,,,https://www.subway.co.th/,,,,,,candidate,,,0.3,overpass_osm,https://www.openstreetmap.org/node/633661369,Subway fast_food
Sushi Cart,fast_food,Koh Phi Phi,,7.73955,98.772812,,,,,,,,,candidate,,,0.3,overpass_osm,https://www.openstreetmap.org/node/7036175557,Sushi Cart fast_food
The Sis,fast_food,Railay,,8.0113344,98.8390189,,,,,,,,,candidate,,,0.3,overpass_osm,https://www.openstreetmap.org/node/13266402558,The Sis fast_food
The Smooth Way,fast_food,Krabi,"คลองม่วง, 81180",8.0529213,98.7604211,,,https://sites.google.com/view/thesmoothwaykrabi/home,,,,,Mo-Sa 10:00-19:00,candidate,,,0.3,overpass_osm,https://www.openstreetmap.org/node/9900769522,"The Smooth Way fast_food คลองม่วง, 81180"
Zurich Bread,fast_food,Krabi,,8.0981116,98.9814885,,,,,,,,,candidate,,,0.3,overpass_osm,https://www.openstreetmap.org/node/5429096322,Zurich Bread fast_food
Baan Chiangmai. Food center and a night market.,food_court,Railay,,8.0332114,98.8281684,,,,,,,,,candidate,,,0.3,overpass_osm,https://www.openstreetmap.org/way/639173137,Baan Chiangmai. Food center and a night market. food_court
Food Market,food_court,Krabi,Maharaj Road 18,8.0669948,98.9161269,,,,,,,,,candidate,,,0.3,overpass_osm,https://www.openstreetmap.org/node/10123327219,Food Market food_court Maharaj Road 18
Loh Moo Dee Beach,food_court,Koh Phi Phi,,7.7339051,98.789202,,,,,,,,,candidate,,,0.3,overpass_osm,https://www.openstreetmap.org/node/1345054105,Loh Moo Dee Beach food_court
Vogue Food Court,food_court,Krabi Town,,8.064429,98.9157908,,,,,,,,Mo-Su 10:30-20:00,candidate,,,0.3,overpass_osm,https://www.openstreetmap.org/node/10120898316,Vogue Food Court food_court
Walking Street,food_court,Koh Lanta,,7.64826,99.0370133,,,,,,,,,candidate,,,0.3,overpass_osm,https://www.openstreetmap.org/way/1245433982,Walking Street food_court
ตลาดเจ้าฟ้า,food_court,Krabi Town,,8.0625923,98.9192187,,,,,,,,Mo-Su 16:00-22:00,candidate,,,0.3,overpass_osm,https://www.openstreetmap.org/way/410088249,ตลาดเจ้าฟ้า food_court
ถนนคนเดินกระบี่,food_court,Krabi Town,,8.06416,98.9163978,,,,,,,,Fr-Su 17:00-22:00,candidate,,,0.3,overpass_osm,https://www.openstreetmap.org/node/10123396869,ถนนคนเดินกระบี่ food_court
... patlung,restaurant,Koh Phi Phi,,7.7619197,98.7708473,,,,,,,,,candidate,,,0.3,overpass_osm,https://www.openstreetmap.org/node/12526552121,... patlung restaurant
333,restaurant,Krabi,,7.569452,99.0358011,,,,,,,,,candidate,,,0.3,overpass_osm,https://www.openstreetmap.org/node/6354197085,333 restaurant
4Seasons,restaurant,Koh Phi Phi,,7.7375647,98.7741095,,,,,,,,,candidate,,,0.3,overpass_osm,https://www.openstreetmap.org/node/3233091080,4Seasons restaurant
@ Pier,restaurant,Koh Lanta,,7.6483514,99.0411383,,,,,,,,,candidate,,,0.3,overpass_osm,https://www.openstreetmap.org/way/469587764,@ Pier restaurant
AR-MA Bistro,restaurant,Krabi Town,,8.0628768,98.9181069,,,,,,,,Mo-Su 08:00-16:00,candidate,,,0.3,overpass_osm,https://www.openstreetmap.org/node/3374384333,AR-MA Bistro restaurant
Aalena Minimart,restaurant,Saladan,"5/2 Moon 3 Baan Saladan, Kp Lanta",7.6170791,99.0308533,,,,,,,,,candidate,,,0.3,overpass_osm,https://www.openstreetmap.org/node/6868731585,"Aalena Minimart restaurant 5/2 Moon 3 Baan Saladan, Kp Lanta"
Adde,restaurant,Koh Lanta,,7.5541043,99.0446387,,,,,,,,,candidate,,,0.3,overpass_osm,https://www.openstreetmap.org/node/2624958353,Adde restaurant
Ahoo,restaurant,Krabi,"236, Thanon Utrakit, 81000",8.0633841,98.9179759,,,,,,,,Mo-Sa 11:00-20:00,candidate,,,0.3,overpass_osm,https://www.openstreetmap.org/node/4610040695,"Ahoo restaurant 236, Thanon Utrakit, 81000"
Aim Aem Restaurant,restaurant,Koh Lanta,,7.6122053,99.0358711,,,,,,,,,candidate,,,0.3,overpass_osm,https://www.openstreetmap.org/node/4367171489,Aim Aem Restaurant restaurant
Aning Restaurant,restaurant,Ao Nang,"142 Moo 2, Ao Nang Beach Road, 81000",8.0329949,98.8202626,0756377667,,,,,,,Mo-Su 10:00-00:00,candidate,,,0.3,overpass_osm,https://www.openstreetmap.org/node/5172484021,"Aning Restaurant restaurant 142 Moo 2, Ao Nang Beach Road, 81000"
Anna's Restaurant,restaurant,Koh Phi Phi,,7.7390136,98.7717414,+66 85 923 2596,,https://www.tripadvisor.com/Restaurant_Review-g303908-d2163908-Reviews-Anna_s_Restaurant-Ko_Phi_Phi_Don_Krabi_Province.html,,,,,,candidate,,,0.3,overpass_osm,https://www.openstreetmap.org/way/321469794,Anna's Restaurant restaurant
Apsara,restaurant,Koh Lanta,,7.5321508,99.0936861,,,,,,,,,candidate,,,0.3,overpass_osm,https://www.openstreetmap.org/node/10896803074,Apsara restaurant
Arboreal,restaurant,Koh Phi Phi,,7.7420757,98.7763972,,,,,,,,,candidate,,,0.3,overpass_osm,https://www.openstreetmap.org/node/3265509742,Arboreal restaurant
Aree BaBa,restaurant,Railay,,8.0347332,98.8302761,,,,,,,,08:00-00:00,candidate,,,0.3,overpass_osm,https://www.openstreetmap.org/node/6021568937,Aree BaBa restaurant
Areeda Seafood,restaurant,Koh Jum,,7.8218207,98.9653337,,,,,,,,,candidate,,,0.3,overpass_osm,https://www.openstreetmap.org/node/7148832261,Areeda Seafood restaurant
Armena Halal Thai Food,restaurant,Krabi,Walking Street,8.0117755,98.8393927,,,,,,,,"PH,Mo-Su 12:00-24:00",candidate,,,0.3,overpass_osm,https://www.openstreetmap.org/node/4727680989,Armena Halal Thai Food restaurant Walking Street
Arnijj,restaurant,Railay,,8.0353463,98.8308058,,,,,,,,,candidate,,,0.3,overpass_osm,https://www.openstreetmap.org/way/275720428,Arnijj restaurant
Aroidee Restaurant,restaurant,Koh Phi Phi,,7.7636217,98.7694424,,,,,,,,,candidate,,,0.3,overpass_osm,https://www.openstreetmap.org/node/2179813033,Aroidee Restaurant restaurant
Auntie Moon,restaurant,Railay,,8.0321508,98.8249258,,,,,,,,,candidate,,,0.3,overpass_osm,https://www.openstreetmap.org/node/5409491723,Auntie Moon restaurant
Azzura,restaurant,Railay,,8.0328117,98.8204737,,,,,,,,,candidate,,,0.3,overpass_osm,https://www.openstreetmap.org/node/4641420790,Azzura restaurant
BALIBAR On Sunset,restaurant,Tubkaek,,8.0447481,98.7616104,+66649976799,,,,,,,,candidate,,,0.3,overpass_osm,https://www.openstreetmap.org/node/12543418290,BALIBAR On Sunset restaurant
Baan Peek Mai,restaurant,Koh Lanta,,7.5486379,99.0455296,,,,,,,,,candidate,,,0.3,overpass_osm,https://www.openstreetmap.org/node/4825137326,Baan Peek Mai restaurant
Baan Tiew,restaurant,Koh Jum,,7.8217171,98.9623668,,,,,,,,,candidate,,,0.3,overpass_osm,https://www.openstreetmap.org/node/7148832256,Baan Tiew restaurant
BaanJingJai Restaurant and Bar,restaurant,Koh Lanta,,7.5488655,99.0456337,0946457229,,,,,,,,candidate,,,0.3,overpass_osm,https://www.openstreetmap.org/node/7057525385,BaanJingJai Restaurant and Bar restaurant
Baifern,restaurant,Koh Lanta,,7.6492893,99.0397634,,,,,,,,,candidate,,,0.3,overpass_osm,https://www.openstreetmap.org/node/4489410691,Baifern restaurant
Bajen,restaurant,Koh Lanta,,7.600431,99.036695,+6675684309;+66900706733,,http://www.bajenpizzeria.com/,,,,,,candidate,,,0.3,overpass_osm,https://www.openstreetmap.org/node/2476521818,Bajen restaurant
Bajien Pizzeria,restaurant,Krabi,"480/3, Moo3, Sala Dan, 81150",7.633637,99.033756,+66 831 752 819,,https://bajen-pizzeria.com,,,,,Mo-Su 14:00-22:00,candidate,,,0.3,overpass_osm,https://www.openstreetmap.org/way/677377950,"Bajien Pizzeria restaurant 480/3, Moo3, Sala Dan, 81150"
Banana House,restaurant,Railay,,8.0379355,98.8333354,,,,,,,,Mo-Su 10:00-22:00,candidate,,,0.3,overpass_osm,https://www.openstreetmap.org/node/5411542526,Banana House restaurant
Banana Sombrero,restaurant,Koh Phi Phi,,7.7406719,98.7738069,+66873306540,,http://www.bananabarphiphi.blogspot.com,,,,,,candidate,,,0.3,overpass_osm,https://www.openstreetmap.org/node/4325153889,Banana Sombrero restaurant
Banana Way,restaurant,Krabi,,7.5748441,99.0352865,,,,,,,,,candidate,,,0.3,overpass_osm,https://www.openstreetmap.org/way/679015393,Banana Way restaurant
Basil Bistro Bar & Restaurant,restaurant,Koh Phi Phi,,7.7399131,98.773267,,,,,,,,,candidate,,,0.3,overpass_osm,https://www.openstreetmap.org/node/11496974783,Basil Bistro Bar & Restaurant restaurant
Beach Terrace,restaurant,Koh Phi Phi,,7.7385625,98.7692332,,,,,,,,09:00-23:00,candidate,,,0.3,overpass_osm,https://www.openstreetmap.org/node/3678511047,Beach Terrace restaurant
Beachcomber Restaurant,restaurant,Koh Lanta,,7.6000689,99.0347053,,,,,,,,,candidate,,,0.3,overpass_osm,https://www.openstreetmap.org/node/4170988589,Beachcomber Restaurant restaurant
Benjarung,restaurant,Koh Phi Phi,,7.7776741,98.7624086,,,,,,,,Mo-Su 06:30-10:00,candidate,,,0.3,overpass_osm,https://www.openstreetmap.org/node/12526680811,Benjarung restaurant
Bersenang-senang,restaurant,Railay,,8.0324988,98.823711,,,,,,,,,candidate,,,0.3,overpass_osm,https://www.openstreetmap.org/node/2798790689,Bersenang-senang restaurant
Biggies Tapas Bar,restaurant,Koh Lanta,,7.6164335,99.0334845,,,,,,,,,candidate,,,0.3,overpass_osm,https://www.openstreetmap.org/node/13272343448,Biggies Tapas Bar restaurant
Bikini,restaurant,Koh Lanta,,7.5936592,99.0318857,,,,,,,,,candidate,,,0.3,overpass_osm,https://www.openstreetmap.org/node/4707510391,Bikini restaurant
Blue Andaman Restaurant,restaurant,Koh Lanta,,7.5811213,99.0311727,,,,,,,,,candidate,,,0.3,overpass_osm,https://www.openstreetmap.org/way/1370128010,Blue Andaman Restaurant restaurant
Blue Dolphin Restaurant & Bar,restaurant,Railay,,8.0342419,98.8188229,,,,,,,,"Mo-Su,PH 14:00-01:00",candidate,,,0.3,overpass_osm,https://www.openstreetmap.org/node/7221234685,Blue Dolphin Restaurant & Bar restaurant
Blue Lagune,restaurant,Koh Phi Phi,,7.7621257,98.7700815,,,https://www.facebook.com/BlueLagunePP,,,,,,candidate,,,0.3,overpass_osm,https://www.openstreetmap.org/node/3282215618,Blue Lagune restaurant
Blue Moon,restaurant,Koh Phi Phi,,7.7278658,98.7888566,,,,,,,,,candidate,,,0.3,overpass_osm,https://www.openstreetmap.org/node/6041927989,Blue Moon restaurant
Blue Tokai,restaurant,Railay,,8.0335384,98.8282797,,,,,,,,,candidate,,,0.3,overpass_osm,https://www.openstreetmap.org/node/11847299487,Blue Tokai restaurant
Bombay Palace,restaurant,Railay,,8.0331126,98.827404,,,,,,,,,candidate,,,0.3,overpass_osm,https://www.openstreetmap.org/node/11847300235,Bombay Palace restaurant
Bon Appetit,restaurant,Krabi,,7.5729718,99.0352222,,,,,,,,,candidate,,,0.3,overpass_osm,https://www.openstreetmap.org/node/2624840481,Bon Appetit restaurant
Budsaba Place,restaurant,Koh Phi Phi,,7.7370326,98.7744874,,,,,,,,,candidate,,,0.3,overpass_osm,https://www.openstreetmap.org/node/11304371739,Budsaba Place restaurant
Buffet El Pillax,restaurant,Koh Lanta,,7.5673226,99.0344231,,,,,,,,,candidate,,,0.3,overpass_osm,https://www.openstreetmap.org/node/11372565370,Buffet El Pillax restaurant
Bun Noodle,restaurant,Koh Lanta,,7.6271525,99.0333499,,,,,,,,,candidate,,,0.3,overpass_osm,https://www.openstreetmap.org/node/13282901098,Bun Noodle restaurant
CHEZ-BEE,restaurant,Krabi,,7.5688193,99.0361545,,,,,,,,,candidate,,,0.3,overpass_osm,https://www.openstreetmap.org/node/6354197087,CHEZ-BEE restaurant
Caesar's Pizza,restaurant,Krabi,"11/5 Moo 2, Soi 11, 81000",8.0338365,98.837949,,,,,,,,,candidate,,,0.3,overpass_osm,https://www.openstreetmap.org/way/1356711021,"Caesar's Pizza restaurant 11/5 Moo 2, Soi 11, 81000"
Cafetel,restaurant,Railay,,8.0414524,98.8382871,,,,,,,,,candidate,,,0.3,overpass_osm,https://www.openstreetmap.org/node/13413176859,Cafetel restaurant
Café 8.98,restaurant,Railay,,8.0325873,98.8245818,,,,,,,,,candidate,,,0.3,overpass_osm,https://www.openstreetmap.org/node/4115706597,Café 8.98 restaurant
Cairo Nights Restaurant,restaurant,Railay,,8.0336528,98.8197374,,,,,,,,,candidate,,,0.3,overpass_osm,https://www.openstreetmap.org/node/4639853526,Cairo Nights Restaurant restaurant
Calamaro Resto,restaurant,Koh Phi Phi,,7.7398028,98.7733375,,,,,,,,,candidate,,,0.3,overpass_osm,https://www.openstreetmap.org/node/1149066977,Calamaro Resto restaurant
Cannabisbar & Restaurant,restaurant,Koh Lanta,,7.6177156,99.0321678,,,,,,,,,candidate,,,0.3,overpass_osm,https://www.openstreetmap.org/node/13243337749,Cannabisbar & Restaurant restaurant
Caoutchou,restaurant,Koh Lanta,,7.5252315,99.0967196,,,,,,,,,candidate,,,0.3,overpass_osm,https://www.openstreetmap.org/node/2486043507,Caoutchou restaurant
Capu Latte,restaurant,Koh Phi Phi,,7.7402415,98.7734325,,,,,,,,,candidate,,,0.3,overpass_osm,https://www.openstreetmap.org/node/4321199100,Capu Latte restaurant
Catfish,restaurant,Koh Lanta,,7.6489935,99.0401377,,,,,,,,,candidate,,,0.3,overpass_osm,https://www.openstreetmap.org/node/4631403589,Catfish restaurant
Chaiphum Restaurant,restaurant,Koh Lanta,,7.6091512,99.0364745,,,,,,,,,candidate,,,0.3,overpass_osm,https://www.openstreetmap.org/node/4367702190,Chaiphum Restaurant restaurant
Chaixi Noodle,restaurant,Railay,,8.045623,98.8372541,,,,,,,,,candidate,,,0.3,overpass_osm,https://www.openstreetmap.org/node/9435671047,Chaixi Noodle restaurant
Charlie House,restaurant,Koh Phi Phi,,7.7408098,98.7736182,,,,,,,,,candidate,,,0.3,overpass_osm,https://www.openstreetmap.org/node/4622829081,Charlie House restaurant
Cheap & Yummy!,restaurant,Koh Lanta,,7.6135303,99.0347752,,,,,,,,,candidate,,,0.3,overpass_osm,https://www.openstreetmap.org/node/5488912723,Cheap & Yummy! restaurant
Cheap restaurant,restaurant,Koh Lanta,,7.542363,99.0475825,,,,,,,,,candidate,,,0.3,overpass_osm,https://www.openstreetmap.org/node/6263702085,Cheap restaurant restaurant
Chef Chalong,restaurant,Koh Lanta,,7.6430563,99.0303717,,,,,,,,,candidate,,,0.3,overpass_osm,https://www.openstreetmap.org/way/1369112646,Chef Chalong restaurant
Chez Charly,restaurant,Koh Lanta,,7.6260886,99.0323381,+66 81 748 6161,,,https://61571990240136,,,,Mo-Su 11:00-21:00,candidate,,,0.3,overpass_osm,https://www.openstreetmap.org/node/13640996701,Chez Charly restaurant
Chili and Pepper,restaurant,Koh Phi Phi,,7.7726919,98.7662782,+66909313088,,,,,,,Mo-Su 10:00-22:00,candidate,,,0.3,overpass_osm,https://www.openstreetmap.org/node/12526525243,Chili and Pepper restaurant
Chill Lay Bar & Restaurant,restaurant,Koh Phi Phi,,7.7389471,98.772008,,,,,,,,,candidate,,,0.3,overpass_osm,https://www.openstreetmap.org/node/5877110785,Chill Lay Bar & Restaurant restaurant
Ciao Bella,restaurant,Koh Phi Phi,,7.7422848,98.773222,,,,,,,,,candidate,,,0.3,overpass_osm,https://www.openstreetmap.org/node/4318400793,Ciao Bella restaurant
Cicada,restaurant,Koh Lanta,,7.6383661,99.0322768,,,,,,,,,candidate,,,0.3,overpass_osm,https://www.openstreetmap.org/node/12680433352,Cicada restaurant
Citrus Restaurant & Bar,restaurant,Saladan,"557 Moo 3, Saladan",7.6378296,99.0341302,+66948963773,,https://www.citrusrestaurantkohlanta.com/,,,,,Mo-Su 10:00-22:00,candidate,,,0.3,overpass_osm,https://www.openstreetmap.org/node/9366890256,"Citrus Restaurant & Bar restaurant 557 Moo 3, Saladan"
Cloud 9,restaurant,Koh Lanta,,7.5716744,99.0337473,,,,,,,,,candidate,,,0.3,overpass_osm,https://www.openstreetmap.org/node/2624917222,Cloud 9 restaurant
Clover House,restaurant,Koh Phi Phi,,7.7414017,98.7743456,,,,,,,,,candidate,,,0.3,overpass_osm,https://www.openstreetmap.org/node/6539759511,Clover House restaurant
Club Atlanta,restaurant,Koh Lanta,,7.5255701,99.0962541,66-(0)89-682-7214,,http://www.clubatlantathailand.com/,,,,,,candidate,,,0.3,overpass_osm,https://www.openstreetmap.org/node/2625010971,Club Atlanta restaurant
CoCo Bella,restaurant,Koh Phi Phi,,7.741111,98.7739288,,,,,,,,,candidate,,,0.3,overpass_osm,https://www.openstreetmap.org/node/6533236987,CoCo Bella restaurant
Coco 2004 Restaurant,restaurant,Railay,,8.0122269,98.8399949,,,,,,,,"PH,Mo-Su 10:00-22:00",candidate,,,0.3,overpass_osm,https://www.openstreetmap.org/node/5353699521,Coco 2004 Restaurant restaurant
Coconut Restaurant,restaurant,Koh Lanta,,7.5072551,99.0636476,,,,,,,,,candidate,,,0.3,overpass_osm,https://www.openstreetmap.org/node/2049096888,Coconut Restaurant restaurant
Coral Bay,restaurant,Koh Jum,,7.8354949,98.9444809,,,,,,,,,candidate,,,0.3,overpass_osm,https://www.openstreetmap.org/node/7150512182,Coral Bay restaurant
Cosmic,restaurant,Koh Phi Phi,,7.7396758,98.7730307,,,,,,,,,candidate,,,0.3,overpass_osm,https://www.openstreetmap.org/node/4823052423,Cosmic restaurant
Curry Palace,restaurant,Railay,,8.0337272,98.8332564,,,,,,,,,candidate,,,0.3,overpass_osm,https://www.openstreetmap.org/way/1232831592,Curry Palace restaurant
Curry Restaurant,restaurant,Krabi,,7.570096,99.0359626,,,,,,,,,candidate,,,0.3,overpass_osm,https://www.openstreetmap.org/node/2624855815,Curry Restaurant restaurant
D&E Jungle Kitchen,restaurant,Railay,,8.0383332,98.8330749,,,,,,,,Mo-Su 17:00-23:00,candidate,,,0.3,overpass_osm,https://www.openstreetmap.org/node/6195208085,D&E Jungle Kitchen restaurant
DMC,restaurant,Koh Phi Phi,,7.7384213,98.7731686,,,,,,,,,candidate,,,0.3,overpass_osm,https://www.openstreetmap.org/node/2034506335,DMC restaurant
Da Carla,restaurant,Railay,,8.0446512,98.8099722,,,,,,,,,candidate,,,0.3,overpass_osm,https://www.openstreetmap.org/node/4187014294,Da Carla restaurant
Daneeyah Halal Food,restaurant,Railay,,8.0332036,98.8278022,,,,,,,,,candidate,,,0.3,overpass_osm,https://www.openstreetmap.org/node/6021695590,Daneeyah Halal Food restaurant
Darla Restaurant,restaurant,Railay,,8.0368248,98.8313867,,,,,,,,,candidate,,,0.3,overpass_osm,https://www.openstreetmap.org/way/684054325,Darla Restaurant restaurant
David Camp,restaurant,Koh Lanta,,7.6170542,99.0303779,,,,,,,,,candidate,,,0.3,overpass_osm,https://www.openstreetmap.org/node/3328189570,David Camp restaurant
Diamond Cliff Beach Restaurant,restaurant,Koh Lanta,,7.5256487,99.0535016,,,,,,,,24/7,candidate,,,0.3,overpass_osm,https://www.openstreetmap.org/node/2736351061,Diamond Cliff Beach Restaurant restaurant
Diver's Inn Steakhouse,restaurant,Railay,,8.0330465,98.8272579,,,,,,,,"Mo-Su,PH 12:00-22:30",candidate,,,0.3,overpass_osm,https://www.openstreetmap.org/node/5511500521,Diver's Inn Steakhouse restaurant
Doasis Café,restaurant,Railay,,8.0090889,98.840894,,,,,,,,,candidate,,,0.3,overpass_osm,https://www.openstreetmap.org/node/13565768202,Doasis Café restaurant
Dow,restaurant,Koh Phi Phi,,7.7390019,98.7726234,,,,,,,,,candidate,,,0.3,overpass_osm,https://www.openstreetmap.org/node/4533806491,Dow restaurant
Dragon View Bar & Restaurant,restaurant,Tubkaek,,8.060754,98.759414,"065-539 5242, 081-895 3504",,,,,,,,candidate,,,0.3,overpass_osm,https://www.openstreetmap.org/node/11404966169,Dragon View Bar & Restaurant restaurant
Dream Team Beach Resort,restaurant,Koh Lanta,,7.518931,99.0584978,,,,,,,,,candidate,,,0.3,overpass_osm,https://www.openstreetmap.org/node/4131897437,Dream Team Beach Resort restaurant
Earth Cafe,restaurant,Railay,,8.0339554,98.8282116,,,,,,,,,candidate,,,0.3,overpass_osm,https://www.openstreetmap.org/node/1597765396,Earth Cafe restaurant
Enjoy Bar,restaurant,Koh Lanta,,7.6228692,99.0329822,,,,,,,,,candidate,,,0.3,overpass_osm,https://www.openstreetmap.org/node/13254418703,Enjoy Bar restaurant
Esan Thai Food,restaurant,Koh Lanta,,7.6134722,99.0348479,,,,,,,,,candidate,,,0.3,overpass_osm,https://www.openstreetmap.org/node/13611139201,Esan Thai Food restaurant
Family Food,restaurant,Koh Lanta,,7.6457772,99.0356361,+66 84 187 0757,,,,,,,Mo-Su 09:00-23:00,candidate,,,0.3,overpass_osm,https://www.openstreetmap.org/node/4547833769,Family Food restaurant
Family Thaifood & Seafood,restaurant,Railay,,8.0330403,98.8241471,,,,,,,,10:00-22:00,candidate,,,0.3,overpass_osm,https://www.openstreetmap.org/node/10273766181,Family Thaifood & Seafood restaurant
Fat Cat,restaurant,Krabi,81000,8.0564251,98.7499395,+66644801873,,http://okrabi.ru,,,,,Su-Fr 09:00-20:00; Sa 09:00-16:30,candidate,,,0.3,overpass_osm,https://www.openstreetmap.org/way/1355319892,Fat Cat restaurant 81000
Fat Turtle,restaurant,Koh Lanta,,7.5995512,99.0342959,,,,,,,,,candidate,,,0.3,overpass_osm,https://www.openstreetmap.org/node/11027366358,Fat Turtle restaurant
Fatima,restaurant,Koh Phi Phi,,7.7363821,98.7659491,,,,,,,,,candidate,,,0.3,overpass_osm,https://www.openstreetmap.org/node/2034506337,Fatima restaurant
Fatty Chubby,restaurant,Krabi,"78, Tambon Ko Lanta Yai",7.5500305,99.0452608,,,,,,,,,candidate,,,0.3,overpass_osm,https://www.openstreetmap.org/node/10774722537,"Fatty Chubby restaurant 78, Tambon Ko Lanta Yai"
Fill - Feel @ Long Beach,restaurant,Koh Lanta,,7.6113839,99.0339287,,,,,,,,,candidate,,,0.3,overpass_osm,https://www.openstreetmap.org/node/10723819270,Fill - Feel @ Long Beach restaurant
First,restaurant,Krabi Town,,8.0612717,98.9175719,,,,,,,,Mo-Fr 06:30+,candidate,,,0.3,overpass_osm,https://www.openstreetmap.org/node/3432582693,First restaurant
Fisherman,restaurant,Krabi,,7.5719392,99.0353051,,,,,,,,,candidate,,,0.3,overpass_osm,https://www.openstreetmap.org/node/13516675085,Fisherman restaurant
Flame Tree Restaurant,restaurant,Railay,,8.011467,98.8379345,,,,,,,,,candidate,,,0.3,overpass_osm,https://www.openstreetmap.org/node/4724070393,Flame Tree Restaurant restaurant
Fochujang,restaurant,Krabi Town,,8.065077,98.9169347,,,,,,,,,candidate,,,0.3,overpass_osm,https://www.openstreetmap.org/node/10896817934,Fochujang restaurant
Food Center,restaurant,Railay,,8.0322636,98.8274586,,,,,,,,,candidate,,,0.3,overpass_osm,https://www.openstreetmap.org/node/7199818485,Food Center restaurant
Food Court,restaurant,Koh Lanta,,7.6485951,99.0405437,,,,,,,,,candidate,,,0.3,overpass_osm,https://www.openstreetmap.org/node/13604656101,Food Court restaurant
Food My Home,restaurant,Koh Lanta,,7.6175337,99.0319586,,,,,,,,,candidate,,,0.3,overpass_osm,https://www.openstreetmap.org/node/13245701188,Food My Home restaurant
French Bakery,restaurant,Koh Lanta,,7.541779,99.0479557,,,,,,,,,candidate,,,0.3,overpass_osm,https://www.openstreetmap.org/node/4130922012,French Bakery restaurant
Fresh Restaurant,restaurant,Koh Lanta,,7.5320215,99.0938293,,,,,,,,,candidate,,,0.3,overpass_osm,https://www.openstreetmap.org/node/2625010972,Fresh Restaurant restaurant
Friend House Restaurant & Tour,restaurant,Krabi,,7.57099,99.0354774,,,,,,,,,candidate,,,0.3,overpass_osm,https://www.openstreetmap.org/node/5416437521,Friend House Restaurant & Tour restaurant
Funky Fish Restaurant,restaurant,Koh Lanta,,7.6169692,99.0294608,,,,,,,,,candidate,,,0.3,overpass_osm,https://www.openstreetmap.org/node/10149042318,Funky Fish Restaurant restaurant
Galaxy,restaurant,Koh Lanta,,7.600041,99.036737,,,,,,,,,candidate,,,0.3,overpass_osm,https://www.openstreetmap.org/node/2481205562,Galaxy restaurant
Garlic 1992 Restaurant,restaurant,Koh Phi Phi,,7.7410741,98.7738105,,,http://www.garlicresto.com,,,,,,candidate,,,0.3,overpass_osm,https://www.openstreetmap.org/node/1225333708,Garlic 1992 Restaurant restaurant
Gecko,restaurant,Koh Lanta,,7.5736394,99.033579,,,,,,,,,candidate,,,0.3,overpass_osm,https://www.openstreetmap.org/node/2624932360,Gecko restaurant
Gecko Cabane,restaurant,Krabi Town,,8.0614668,98.9156393,,,,,,,,,candidate,,,0.3,overpass_osm,https://www.openstreetmap.org/node/1613132129,Gecko Cabane restaurant
Goan Bistro Krabi,restaurant,Railay,,8.0425052,98.8198846,,,,,,,,,candidate,,,0.3,overpass_osm,https://www.openstreetmap.org/way/1332423779,Goan Bistro Krabi restaurant
God Lee,restaurant,Krabi Town,,8.0289139,98.8907555,,,,,,,,,candidate,,,0.3,overpass_osm,https://www.openstreetmap.org/node/4801075728,God Lee restaurant
Golden Pond,restaurant,Koh Lanta,,7.5503624,99.0445125,,,,,,,,,candidate,,,0.3,overpass_osm,https://www.openstreetmap.org/node/6296934066,Golden Pond restaurant
Golden Spoon,restaurant,Railay,,8.011987,98.84244,,,,,,,,,candidate,,,0.3,overpass_osm,https://www.openstreetmap.org/node/13607250902,Golden Spoon restaurant
Govinda's Restaurant,restaurant,Krabi,"115, Moo 3, 81180",8.0387203,98.8195291,+66 99 363 5158,,,,,,,"Mo-Fr 12:00-15:30, 18:00-21:00",candidate,,,0.3,overpass_osm,https://www.openstreetmap.org/node/4891373023,"Govinda's Restaurant restaurant 115, Moo 3, 81180"
Govinda's at the Beach,restaurant,Railay,,8.0114202,98.8383418,,,,,,,,,candidate,,,0.3,overpass_osm,https://www.openstreetmap.org/node/10716433663,Govinda's at the Beach restaurant
Green Horse,restaurant,Railay,,8.0345361,98.8187142,,,,,,,,Mo-Su 11:00-02:00,candidate,,,0.3,overpass_osm,https://www.openstreetmap.org/way/581603907,Green Horse restaurant
Green Restaurant,restaurant,Railay,,8.0201796,98.8335912,,,,,,,,,candidate,,,0.3,overpass_osm,https://www.openstreetmap.org/node/12364485696,Green Restaurant restaurant
Gu burrirum restaurant,restaurant,Krabi,,7.5687922,99.0361818,,,,,,,,,candidate,,,0.3,overpass_osm,https://www.openstreetmap.org/node/7105920886,Gu burrirum restaurant restaurant
Halal Krabi Restaurant,restaurant,Krabi,,8.0664378,99.0024064,,,,,,,,,candidate,,,0.3,overpass_osm,https://www.openstreetmap.org/node/5650640721,Halal Krabi Restaurant restaurant
Hans Bungalow,restaurant,Koh Lanta,,7.6378214,99.0296628,,,,,,,,,candidate,,,0.3,overpass_osm,https://www.openstreetmap.org/node/2049096889,Hans Bungalow restaurant
Happy Veggie,restaurant,Koh Lanta,,7.5917494,99.0358019,+66 96 135 9717,,,https://happyvegkohlanta,,,,Mo-Su 10:00-22:00,candidate,,,0.3,overpass_osm,https://www.openstreetmap.org/node/5587770629,Happy Veggie restaurant
Harmony Thai Food,restaurant,Koh Phi Phi,,7.7417462,98.7757416,,,,,,,,,candidate,,,0.3,overpass_osm,https://www.openstreetmap.org/node/5423777923,Harmony Thai Food restaurant
Hawa Food,restaurant,Krabi Town,,8.0630114,98.9169465,,,,,,,,,candidate,,,0.3,overpass_osm,https://www.openstreetmap.org/node/5354211422,Hawa Food restaurant
Heama,restaurant,Koh Lanta,,7.629574,99.0336385,,,,,,,,,candidate,,,0.3,overpass_osm,https://www.openstreetmap.org/node/13240662233,Heama restaurant
Hello India,restaurant,Koh Phi Phi,,7.7397877,98.7729965,,,,,,,,,candidate,,,0.3,overpass_osm,https://www.openstreetmap.org/node/2034506338,Hello India restaurant
Himalaya,restaurant,Koh Phi Phi,,7.7419489,98.7746311,,,,,,,,,candidate,,,0.3,overpass_osm,https://www.openstreetmap.org/node/4620581555,Himalaya restaurant
Hom Cha,restaurant,Krabi Town,,8.0614834,98.9157631,,,,,,,,,candidate,,,0.3,overpass_osm,https://www.openstreetmap.org/node/1613132130,Hom Cha restaurant
Home made food garden,restaurant,Koh Lanta,,7.5446816,99.0519348,,,,,,,,Mo-Su 07:30-23:00,candidate,,,0.3,overpass_osm,https://www.openstreetmap.org/node/7034988185,Home made food garden restaurant
Hometel,restaurant,Krabi Town,,8.0650423,98.9167833,,,,,,,,,candidate,,,0.3,overpass_osm,https://www.openstreetmap.org/node/5365966621,Hometel restaurant
Horizon,restaurant,Koh Lanta,,7.5381292,99.048788,,,,,,,,,candidate,,,0.3,overpass_osm,https://www.openstreetmap.org/node/2624983033,Horizon restaurant
Huapaan Restaurant 2 Thai Duc,restaurant,Koh Phi Phi,,7.7390091,98.7719657,,,,,,,,,candidate,,,0.3,overpass_osm,https://www.openstreetmap.org/node/11559616769,Huapaan Restaurant 2 Thai Duc restaurant
ITS CHIBBY,restaurant,Koh Lanta,,7.5207728,99.0581094,,,,,,,,,candidate,,,0.3,overpass_osm,https://www.openstreetmap.org/node/6149540285,ITS CHIBBY restaurant
Island Bar,restaurant,Koh Lanta,,7.6334244,99.0315117,,,,,,,,,candidate,,,0.3,overpass_osm,https://www.openstreetmap.org/way/660924127,Island Bar restaurant
Italian Pizzeria,restaurant,Koh Lanta,,7.5445856,99.047045,,,,,,,,,candidate,,,0.3,overpass_osm,https://www.openstreetmap.org/node/4130908130,Italian Pizzeria restaurant
Italiano Bar Restaurant,restaurant,Krabi,"92, Moo 7, 81000",7.7387591,98.7716718,+66 65 675 4303,,https://italianophuket.com/italiano-bar-restaurant/,https://www.facebook.com/italianokohphiphi,https://www.instagram.com/italiano.restaurant.phiphi,,,Mo-Su 11:00-23:00,candidate,,,0.3,overpass_osm,https://www.openstreetmap.org/node/13230186357,"Italiano Bar Restaurant restaurant 92, Moo 7, 81000"
Ja Kai Mitmaitree Halal Restaurant,restaurant,Koh Lanta,,7.6399435,99.0340478,,,,,,,,,candidate,,,0.3,overpass_osm,https://www.openstreetmap.org/node/9734782617,Ja Kai Mitmaitree Halal Restaurant restaurant
Jaak Cuisine,restaurant,Krabi Town,,8.061413,98.9194184,,,,,,,,,candidate,,,0.3,overpass_osm,https://www.openstreetmap.org/node/12598714655,Jaak Cuisine restaurant
Jack's Bamboo Restaurant,restaurant,Koh Lanta,,7.6265024,99.0286689,,,,,,,,,candidate,,,0.3,overpass_osm,https://www.openstreetmap.org/node/3328189572,Jack's Bamboo Restaurant restaurant
Jai Jagannath,restaurant,Railay,,8.0314443,98.8221881,,,,,,,,Mo-Su 11:00-22:30,candidate,,,0.3,overpass_osm,https://www.openstreetmap.org/node/12989370601,Jai Jagannath restaurant
Jam Bar & Restaurant,restaurant,Koh Lanta,,7.6170906,99.029411,,,,,,,,,candidate,,,0.3,overpass_osm,https://www.openstreetmap.org/node/6489978186,Jam Bar & Restaurant restaurant
Jameji Restaurant,restaurant,Koh Lanta,,7.6380713,99.0322802,,,,,,,,Mo-Su 07:30-21:30,candidate,,,0.3,overpass_osm,https://www.openstreetmap.org/node/13442718002,Jameji Restaurant restaurant
Janus Local Food Restaurant,restaurant,Krabi,,7.5455726,99.0616438,,,,,,,,,candidate,,,0.3,overpass_osm,https://www.openstreetmap.org/node/6271597787,Janus Local Food Restaurant restaurant
Jasmin,restaurant,Koh Phi Phi,,7.7770908,98.7630621,,,,,,,,,candidate,,,0.3,overpass_osm,https://www.openstreetmap.org/node/12526543062,Jasmin restaurant
Jeab's Dining & Bar,restaurant,Koh Lanta,,7.5671275,99.0344618,,,,,,,,,candidate,,,0.3,overpass_osm,https://www.openstreetmap.org/node/11978178577,Jeab's Dining & Bar restaurant
Jeanette's Restaurant,restaurant,Railay,,8.0327449,98.8205519,,,,,,,,,candidate,,,0.3,overpass_osm,https://www.openstreetmap.org/node/2557144889,Jeanette's Restaurant restaurant
Jen Bar,restaurant,Railay,,8.0118083,98.8394495,,,,,,,,"PH,Mo-Su 11:00-22:30",candidate,,,0.3,overpass_osm,https://www.openstreetmap.org/node/4032642990,Jen Bar restaurant
Jeseao Restaurant,restaurant,Railay,,8.0322151,98.8211109,,,,,,,,,candidate,,,0.3,overpass_osm,https://www.openstreetmap.org/node/5316526121,Jeseao Restaurant restaurant
Jungle Beach,restaurant,Koh Phi Phi,,7.7384594,98.7689302,,,,,,,,11:00-24:00,candidate,,,0.3,overpass_osm,https://www.openstreetmap.org/node/3678511057,Jungle Beach restaurant
Ka Ying Halal Food,restaurant,Railay,,8.0502138,98.8160563,,,,,,,,,candidate,,,0.3,overpass_osm,https://www.openstreetmap.org/node/11586854369,Ka Ying Halal Food restaurant
Kaka restaurant,restaurant,Koh Lanta,,7.6183207,99.0324977,,,,,,,,,candidate,,,0.3,overpass_osm,https://www.openstreetmap.org/node/4787480129,Kaka restaurant restaurant
Kansa Restaurant,restaurant,Koh Lanta,,7.5438887,99.0467069,,,,,,,,,candidate,,,0.3,overpass_osm,https://www.openstreetmap.org/node/4821756935,Kansa Restaurant restaurant
Kao Soi Long Beach,restaurant,Koh Lanta,,7.617936,99.0323559,,,,,,,,"Mo-Su,PH 12:00-22:00",candidate,,,0.3,overpass_osm,https://www.openstreetmap.org/node/13245671984,Kao Soi Long Beach restaurant
KaoTom PorPeang,restaurant,Railay,,8.0342272,98.8291324,,,,,,,,,candidate,,,0.3,overpass_osm,https://www.openstreetmap.org/node/2815635471,KaoTom PorPeang restaurant
Katikala,restaurant,Koh Lanta,,7.5770648,99.032272,,,,,,,,,candidate,,,0.3,overpass_osm,https://www.openstreetmap.org/node/10298130933,Katikala restaurant
Kayaking Nong Talay And The Iake View Restaurt,restaurant,Tubkaek,,8.1002454,98.8105581,,,,,,,,,candidate,,,0.3,overpass_osm,https://www.openstreetmap.org/node/6005268594,Kayaking Nong Talay And The Iake View Restaurt restaurant
Khaw Tom Lanta 1,restaurant,Koh Lanta,,7.6316313,99.033504,,,,,,,,,candidate,,,0.3,overpass_osm,https://www.openstreetmap.org/node/13240624345,Khaw Tom Lanta 1 restaurant
Khawfhang Restaurant,restaurant,Railay,,8.0347836,98.8303442,,,,,,,,,candidate,,,0.3,overpass_osm,https://www.openstreetmap.org/node/6021568690,Khawfhang Restaurant restaurant
Kieng Ley Seafood,restaurant,Koh Lanta,,7.6497712,99.0392983,,,,,,,,,candidate,,,0.3,overpass_osm,https://www.openstreetmap.org/node/3349527288,Kieng Ley Seafood restaurant
Kin Burger,restaurant,Koh Lanta,,7.6172954,99.0293384,,,,,,,,,candidate,,,0.3,overpass_osm,https://www.openstreetmap.org/node/12811183218,Kin Burger restaurant
Kinkan Restaurant กินกัน,restaurant,Krabi,"Horizon Rd, Ko Lanta Yai, Ko Lanta District, Krabi 81150",7.5395095,99.0487683,093 721 5356,,,,,,,Mo-Su 09:00-21:00,candidate,,,0.3,overpass_osm,https://www.openstreetmap.org/node/11810960554,"Kinkan Restaurant กินกัน restaurant Horizon Rd, Ko Lanta Yai, Ko Lanta District, Krabi 81150"
Kinnaree,restaurant,Koh Lanta,,7.6496724,99.039457,,,,,,,,,candidate,,,0.3,overpass_osm,https://www.openstreetmap.org/node/3349530800,Kinnaree restaurant
Kitchen Klong Dao,restaurant,Koh Lanta,,7.6258311,99.0334781,,,,,,,,,candidate,,,0.3,overpass_osm,https://www.openstreetmap.org/node/13282878318,Kitchen Klong Dao restaurant
Klong Khong,restaurant,Koh Lanta,,7.5740693,99.0334195,,,,,,,,,candidate,,,0.3,overpass_osm,https://www.openstreetmap.org/node/10294937986,Klong Khong restaurant
Ko Suang Restaurant,restaurant,Krabi Town,,8.0681226,98.9165947,,,,,,,,,candidate,,,0.3,overpass_osm,https://www.openstreetmap.org/node/11491724823,Ko Suang Restaurant restaurant
KoDam Kitchen Oceanview,restaurant,Krabi Town,,8.0277555,98.8696817,,,,,,,,,candidate,,,0.3,overpass_osm,https://www.openstreetmap.org/node/13737080572,KoDam Kitchen Oceanview restaurant
Koh I Noor Restaurante - Indian Food - Pizza - Pasta,restaurant,Krabi,"In front of shooting range, Walking Street",8.0120591,98.8401162,,,,,,,,"PH,Mo-Su 11:00-23:00",candidate,,,0.3,overpass_osm,https://www.openstreetmap.org/node/4109211996,"Koh I Noor Restaurante - Indian Food - Pizza - Pasta restaurant In front of shooting range, Walking Street"
Koh Ngai Resort Restaurant,restaurant,Koh Mook,,7.404806,99.2156667,,,,,,,,,candidate,,,0.3,overpass_osm,https://www.openstreetmap.org/way/1230791776,Koh Ngai Resort Restaurant restaurant
Krua Aonang Cuisine,restaurant,Railay,,8.0344851,98.8181173,,,,,,,,,candidate,,,0.3,overpass_osm,https://www.openstreetmap.org/node/7528461485,Krua Aonang Cuisine restaurant
Krua Dan Tai,restaurant,Koh Lanta,,7.6307984,99.0334606,+66 93 6193592,,,,,,,,candidate,,,0.3,overpass_osm,https://www.openstreetmap.org/node/4022018489,Krua Dan Tai restaurant
Krua Kritsana,restaurant,Koh Lanta,,7.6159098,99.0332479,,,,,,,,,candidate,,,0.3,overpass_osm,https://www.openstreetmap.org/node/2337171610,Krua Kritsana restaurant
Krua Nudah,restaurant,Krabi,"Krua Nidah 313 หมู่4 Tambon Sala Dan, Amphoe Ko Lanta, Chang Wat Krabi, 81150",7.6038686,99.0635703,,,,,,,,Th-Tu 08:00-17:00,candidate,,,0.3,overpass_osm,https://www.openstreetmap.org/node/6317345485,"Krua Nudah restaurant Krua Nidah 313 หมู่4 Tambon Sala Dan, Amphoe Ko Lanta, Chang Wat Krabi, 81150"
Krue,restaurant,Koh Lanta,,7.5340188,99.091486,,,,,,,,,candidate,,,0.3,overpass_osm,https://www.openstreetmap.org/node/7006486985,Krue restaurant
Kun Ya,restaurant,Koh Phi Phi,,7.7372736,98.7743412,,,,,,,,,candidate,,,0.3,overpass_osm,https://www.openstreetmap.org/node/7036227245,Kun Ya restaurant
Kung Restaurant,restaurant,Koh Lanta,,7.6493759,99.0392012,,,,,,,,,candidate,,,0.3,overpass_osm,https://www.openstreetmap.org/node/4782419522,Kung Restaurant restaurant
La Faliase,restaurant,Railay,,8.0375856,98.8306433,,,,,,,,,candidate,,,0.3,overpass_osm,https://www.openstreetmap.org/node/6408146807,La Faliase restaurant
La Luna,restaurant,Railay,,8.034925,98.8191381,,,,,,,,,candidate,,,0.3,overpass_osm,https://www.openstreetmap.org/node/3371398235,La Luna restaurant
La Mamita,restaurant,Koh Phi Phi,,7.7402253,98.7735426,,,,,,,,,candidate,,,0.3,overpass_osm,https://www.openstreetmap.org/node/3678511059,La Mamita restaurant
La Monaco,restaurant,Koh Lanta,,7.5360798,99.0495362,,,,,,,,,candidate,,,0.3,overpass_osm,https://www.openstreetmap.org/node/2624983034,La Monaco restaurant
La Palma,restaurant,Koh Lanta,,7.6449348,99.0293622,+66936472788,,,,,,,Mo-Su 10:00-23:50,candidate,,,0.3,overpass_osm,https://www.openstreetmap.org/node/12517831851,La Palma restaurant
Lae Lay Grill,restaurant,Railay,,8.0401022,98.8229202,+6675661588,rsv@laelaygrill.com,https://laelaygrill.com/,,,,,Mo-Su 11:00-22:00,candidate,,,0.3,overpass_osm,https://www.openstreetmap.org/node/4201532390,Lae Lay Grill restaurant
Lan Lek Lek,restaurant,Krabi Town,,8.0652234,98.9161914,,,,,,,,,candidate,,,0.3,overpass_osm,https://www.openstreetmap.org/node/11591901670,Lan Lek Lek restaurant
Lanta New Beach Restaurant,restaurant,Koh Lanta,,7.5814991,99.0310768,,,,,,,,,candidate,,,0.3,overpass_osm,https://www.openstreetmap.org/node/4542745392,Lanta New Beach Restaurant restaurant
Lanta Noodles,restaurant,Koh Lanta,,7.6114805,99.0360929,,,,,,,,,candidate,,,0.3,overpass_osm,https://www.openstreetmap.org/node/4367680290,Lanta Noodles restaurant
Lanta Riviera Beach,restaurant,Koh Lanta,,7.5765158,99.03247,,,,,,,,,candidate,,,0.3,overpass_osm,https://www.openstreetmap.org/node/10298228584,Lanta Riviera Beach restaurant
Lanta Sea Food,restaurant,Koh Lanta,,7.6503435,99.0379598,,,,,,,,,candidate,,,0.3,overpass_osm,https://www.openstreetmap.org/node/10199662817,Lanta Sea Food restaurant
Lantana Bar & Restaurant,restaurant,Krabi,,7.5687,99.0362703,,,,,,,,,candidate,,,0.3,overpass_osm,https://www.openstreetmap.org/node/6057909185,Lantana Bar & Restaurant restaurant
Lantasure Restaurant,restaurant,Saladan,Moo 2 Saladan Subidstrict,7.5722191,99.0355609,,,,,,,,,candidate,,,0.3,overpass_osm,https://www.openstreetmap.org/node/5514291721,Lantasure Restaurant restaurant Moo 2 Saladan Subidstrict
Lap Roi-et,restaurant,Koh Lanta,,7.6371622,99.0339532,,,,,,,,,candidate,,,0.3,overpass_osm,https://www.openstreetmap.org/node/13240907326,Lap Roi-et restaurant
Larb Koi Roi Et,restaurant,Railay,,8.0420895,98.8394001,,,,,,,,,candidate,,,0.3,overpass_osm,https://www.openstreetmap.org/node/12531711201,Larb Koi Roi Et restaurant
"Larb Koi Roi Et, original thailändisches Restaurant",restaurant,Krabi,ถนนเขาแก้ว,8.0411054,98.8395594,,,,,,,,,candidate,,,0.3,overpass_osm,https://www.openstreetmap.org/node/12539014801,"Larb Koi Roi Et, original thailändisches Restaurant restaurant ถนนเขาแก้ว"
Lazy Days Restaurant,restaurant,Koh Lanta,,7.5905757,99.0323747,,,,,,,,,candidate,,,0.3,overpass_osm,https://www.openstreetmap.org/way/449586855,Lazy Days Restaurant restaurant
Le Cafe Terrasse,restaurant,Tubkaek,,8.053096,98.7583557,,,,,,,,,candidate,,,0.3,overpass_osm,https://www.openstreetmap.org/node/10704518197,Le Cafe Terrasse restaurant
Le Grand Bleu,restaurant,Koh Phi Phi,,7.7390175,98.771026,,,,,,,,,candidate,,,0.3,overpass_osm,https://www.openstreetmap.org/node/4323333389,Le Grand Bleu restaurant
Limoncello,restaurant,Tubkaek,,8.0523015,98.7550685,,,,,,,,,candidate,,,0.3,overpass_osm,https://www.openstreetmap.org/way/1127706929,Limoncello restaurant
Local Thai Food,restaurant,Railay,,8.01224,98.8403173,,,,,,,,"PH,Mo-Su 09:30-22:00",candidate,,,0.3,overpass_osm,https://www.openstreetmap.org/node/4183770379,Local Thai Food restaurant
Loro Loco Vegan Vegetarian + Pizza Restaurant,restaurant,Saladan,"198, m.2 T. Saladan, krabi, 81150",7.5703161,99.0358964,,,,,,,,,candidate,,,0.3,overpass_osm,https://www.openstreetmap.org/node/6098656206,"Loro Loco Vegan Vegetarian + Pizza Restaurant restaurant 198, m.2 T. Saladan, krabi, 81150"
Luang Dee restaurant jimjum,restaurant,Koh Phi Phi,,7.7411152,98.774759,,,,,,,,,candidate,,,0.3,overpass_osm,https://www.openstreetmap.org/node/5227340321,Luang Dee restaurant jimjum restaurant
Lucky 13,restaurant,Krabi,58/12,7.7390353,98.7708735,,,https://lucky13sandwich.com/,,,,,24/7,candidate,,,0.3,overpass_osm,https://www.openstreetmap.org/node/6021701293,Lucky 13 restaurant 58/12
Lucky Fish,restaurant,Koh Lanta,,7.5340083,99.0502261,,,,,,,,,candidate,,,0.3,overpass_osm,https://www.openstreetmap.org/node/2624983035,Lucky Fish restaurant
Luckyim Seafood,restaurant,Railay,,8.0338081,98.8285422,,,,,,,,12:00-00:00,candidate,,,0.3,overpass_osm,https://www.openstreetmap.org/node/6021695065,Luckyim Seafood restaurant
Lym's Bar & Restaurant,restaurant,Saladan,"472 moo 3, tambon saladan, ko lanta, 81150",7.6082824,99.0327754,,,,,,,,Mo-Su 11:00-22:00,candidate,,,0.3,overpass_osm,https://www.openstreetmap.org/node/1094498309,"Lym's Bar & Restaurant restaurant 472 moo 3, tambon saladan, ko lanta, 81150"
Lym's Bar and Restaurant,restaurant,Koh Lanta,,7.6083098,99.0329109,,,,,,,,,candidate,,,0.3,overpass_osm,https://www.openstreetmap.org/way/762672101,Lym's Bar and Restaurant restaurant
M Thai Food,restaurant,Koh Lanta,,7.5775044,99.0348339,,,,,,,,,candidate,,,0.3,overpass_osm,https://www.openstreetmap.org/node/5422055440,M Thai Food restaurant
